{
	"Autauga County, AL": {
		"name": "Autauga County, AL",
		"long": -86.64449,
		"lat": 32.536382
	},
	"Baldwin County, AL": {
		"name": "Baldwin County, AL",
		"long": -87.746067,
		"lat": 30.659218
	},
	"Bibb County, AL": {
		"name": "Bibb County, AL",
		"long": -87.127148,
		"lat": 33.015893
	},
	"Blount County, AL": {
		"name": "Blount County, AL",
		"long": -86.567246,
		"lat": 33.977448
	},
	"Calhoun County, AL": {
		"name": "Calhoun County, AL",
		"long": -85.822513,
		"lat": 33.771706
	},
	"Cherokee County, AL": {
		"name": "Cherokee County, AL",
		"long": -85.654242,
		"lat": 34.069515
	},
	"Chilton County, AL": {
		"name": "Chilton County, AL",
		"long": -86.726628,
		"lat": 32.85406
	},
	"Choctaw County, AL": {
		"name": "Choctaw County, AL",
		"long": -88.248887,
		"lat": 31.991008
	},
	"Cleburne County, AL": {
		"name": "Cleburne County, AL",
		"long": -85.516109,
		"lat": 33.671981
	},
	"Coffee County, AL": {
		"name": "Coffee County, AL",
		"long": -85.989201,
		"lat": 31.402183
	},
	"Colbert County, AL": {
		"name": "Colbert County, AL",
		"long": -87.801457,
		"lat": 34.703112
	},
	"Covington County, AL": {
		"name": "Covington County, AL",
		"long": -86.448721,
		"lat": 31.243987
	},
	"Cullman County, AL": {
		"name": "Cullman County, AL",
		"long": -86.869267,
		"lat": 34.131923
	},
	"Dale County, AL": {
		"name": "Dale County, AL",
		"long": -85.609476,
		"lat": 31.430654
	},
	"Dallas County, AL": {
		"name": "Dallas County, AL",
		"long": -87.114356,
		"lat": 32.33354
	},
	"DeKalb County, AL": {
		"name": "DeKalb County, AL",
		"long": -85.803992,
		"lat": 34.460929
	},
	"Elmore County, AL": {
		"name": "Elmore County, AL",
		"long": -86.142739,
		"lat": 32.597229
	},
	"Etowah County, AL": {
		"name": "Etowah County, AL",
		"long": -86.03442,
		"lat": 34.047638
	},
	"Hale County, AL": {
		"name": "Hale County, AL",
		"long": -87.623061,
		"lat": 32.752796
	},
	"Houston County, AL": {
		"name": "Houston County, AL",
		"long": -85.296398,
		"lat": 31.158193
	},
	"Jackson County, AL": {
		"name": "Jackson County, AL",
		"long": -85.9774,
		"lat": 34.763522
	},
	"Jefferson County, AL": {
		"name": "Jefferson County, AL",
		"long": -86.896536,
		"lat": 33.553444
	},
	"Lauderdale County, AL": {
		"name": "Lauderdale County, AL",
		"long": -87.650997,
		"lat": 34.904122
	},
	"Lawrence County, AL": {
		"name": "Lawrence County, AL",
		"long": -87.321865,
		"lat": 34.529776
	},
	"Lee County, AL": {
		"name": "Lee County, AL",
		"long": -85.353048,
		"lat": 32.604064
	},
	"Limestone County, AL": {
		"name": "Limestone County, AL",
		"long": -86.9814,
		"lat": 34.810239
	},
	"Madison County, AL": {
		"name": "Madison County, AL",
		"long": -86.55108,
		"lat": 34.764238
	},
	"Marshall County, AL": {
		"name": "Marshall County, AL",
		"long": -86.321668,
		"lat": 34.309564
	},
	"Mobile County, AL": {
		"name": "Mobile County, AL",
		"long": -88.196568,
		"lat": 30.684573
	},
	"Montgomery County, AL": {
		"name": "Montgomery County, AL",
		"long": -86.203831,
		"lat": 32.203651
	},
	"Morgan County, AL": {
		"name": "Morgan County, AL",
		"long": -86.846402,
		"lat": 34.454484
	},
	"Perry County, AL": {
		"name": "Perry County, AL",
		"long": -87.293827,
		"lat": 32.639005
	},
	"Pike County, AL": {
		"name": "Pike County, AL",
		"long": -85.941997,
		"lat": 31.798726
	},
	"Russell County, AL": {
		"name": "Russell County, AL",
		"long": -85.18698,
		"lat": 32.289811
	},
	"St. Clair County, AL": {
		"name": "St. Clair County, AL",
		"long": -86.315663,
		"lat": 33.712963
	},
	"Shelby County, AL": {
		"name": "Shelby County, AL",
		"long": -86.678104,
		"lat": 33.262937
	},
	"Sumter County, AL": {
		"name": "Sumter County, AL",
		"long": -88.200057,
		"lat": 32.597481
	},
	"Talladega County, AL": {
		"name": "Talladega County, AL",
		"long": -86.175805,
		"lat": 33.369277
	},
	"Tallapoosa County, AL": {
		"name": "Tallapoosa County, AL",
		"long": -85.799553,
		"lat": 32.863369
	},
	"Tuscaloosa County, AL": {
		"name": "Tuscaloosa County, AL",
		"long": -87.52286,
		"lat": 33.290202
	},
	"Walker County, AL": {
		"name": "Walker County, AL",
		"long": -87.301092,
		"lat": 33.791571
	},
	"Wilcox County, AL": {
		"name": "Wilcox County, AL",
		"long": -87.302205,
		"lat": 31.99033
	},
	"Anchorage County, AK": {
		"name": "Anchorage County, AK",
		"long": -149.274354,
		"lat": 61.177549
	},
	"Bethel Census County, AK": {
		"name": "Bethel Census County, AK",
		"long": -160.15335,
		"lat": 60.928916
	},
	"Fairbanks North Star County, AK": {
		"name": "Fairbanks North Star County, AK",
		"long": -146.599867,
		"lat": 64.690832
	},
	"Juneau City and County, AK": {
		"name": "Juneau City and County, AK",
		"long": -134.178781,
		"lat": 58.3727
	},
	"Matanuska-Susitna County, AK": {
		"name": "Matanuska-Susitna County, AK",
		"long": -149.407974,
		"lat": 62.182174
	},
	"Yukon-Koyukuk Census County, AK": {
		"name": "Yukon-Koyukuk Census County, AK",
		"long": -151.576855,
		"lat": 65.376131
	},
	"Apache County, AZ": {
		"name": "Apache County, AZ",
		"long": -109.493747,
		"lat": 35.385845
	},
	"Cochise County, AZ": {
		"name": "Cochise County, AZ",
		"long": -109.75412,
		"lat": 31.881793
	},
	"Coconino County, AZ": {
		"name": "Coconino County, AZ",
		"long": -111.773728,
		"lat": 35.829692
	},
	"Gila County, AZ": {
		"name": "Gila County, AZ",
		"long": -110.81187,
		"lat": 33.789618
	},
	"Graham County, AZ": {
		"name": "Graham County, AZ",
		"long": -109.87831,
		"lat": 32.931828
	},
	"La Paz County, AZ": {
		"name": "La Paz County, AZ",
		"long": -114.038793,
		"lat": 33.727625
	},
	"Maricopa County, AZ": {
		"name": "Maricopa County, AZ",
		"long": -112.495534,
		"lat": 33.346541
	},
	"Mohave County, AZ": {
		"name": "Mohave County, AZ",
		"long": -113.749689,
		"lat": 35.717705
	},
	"Navajo County, AZ": {
		"name": "Navajo County, AZ",
		"long": -110.320908,
		"lat": 35.390934
	},
	"Pima County, AZ": {
		"name": "Pima County, AZ",
		"long": -111.783018,
		"lat": 32.128237
	},
	"Pinal County, AZ": {
		"name": "Pinal County, AZ",
		"long": -111.367257,
		"lat": 32.91891
	},
	"Santa Cruz County, AZ": {
		"name": "Santa Cruz County, AZ",
		"long": -110.84519,
		"lat": 31.525904
	},
	"Yavapai County, AZ": {
		"name": "Yavapai County, AZ",
		"long": -112.573745,
		"lat": 34.630044
	},
	"Yuma County, AZ": {
		"name": "Yuma County, AZ",
		"long": -113.910905,
		"lat": 32.773942
	},
	"Baxter County, AR": {
		"name": "Baxter County, AR",
		"long": -92.330438,
		"lat": 36.28071
	},
	"Benton County, AR": {
		"name": "Benton County, AR",
		"long": -94.256187,
		"lat": 36.337825
	},
	"Boone County, AR": {
		"name": "Boone County, AR",
		"long": -93.079204,
		"lat": 36.304308
	},
	"Calhoun County, AR": {
		"name": "Calhoun County, AR",
		"long": -92.513879,
		"lat": 33.56046
	},
	"Cleburne County, AR": {
		"name": "Cleburne County, AR",
		"long": -92.059974,
		"lat": 35.566288
	},
	"Columbia County, AR": {
		"name": "Columbia County, AR",
		"long": -93.226901,
		"lat": 33.21507
	},
	"Craighead County, AR": {
		"name": "Craighead County, AR",
		"long": -90.630411,
		"lat": 35.828268
	},
	"Crawford County, AR": {
		"name": "Crawford County, AR",
		"long": -94.236224,
		"lat": 35.583041
	},
	"Crittenden County, AR": {
		"name": "Crittenden County, AR",
		"long": -90.315331,
		"lat": 35.211878
	},
	"Drew County, AR": {
		"name": "Drew County, AR",
		"long": -91.722778,
		"lat": 33.587242
	},
	"Faulkner County, AR": {
		"name": "Faulkner County, AR",
		"long": -92.324654,
		"lat": 35.146356
	},
	"Franklin County, AR": {
		"name": "Franklin County, AR",
		"long": -93.887672,
		"lat": 35.508573
	},
	"Garland County, AR": {
		"name": "Garland County, AR",
		"long": -93.146915,
		"lat": 34.578861
	},
	"Grant County, AR": {
		"name": "Grant County, AR",
		"long": -92.423984,
		"lat": 34.288063
	},
	"Greene County, AR": {
		"name": "Greene County, AR",
		"long": -90.565241,
		"lat": 36.119922
	},
	"Hot Spring County, AR": {
		"name": "Hot Spring County, AR",
		"long": -92.944147,
		"lat": 34.315177
	},
	"Independence County, AR": {
		"name": "Independence County, AR",
		"long": -91.559942,
		"lat": 35.737499
	},
	"Izard County, AR": {
		"name": "Izard County, AR",
		"long": -91.913625,
		"lat": 36.094879
	},
	"Jackson County, AR": {
		"name": "Jackson County, AR",
		"long": -91.223178,
		"lat": 35.596605
	},
	"Jefferson County, AR": {
		"name": "Jefferson County, AR",
		"long": -91.930701,
		"lat": 34.277696
	},
	"Lawrence County, AR": {
		"name": "Lawrence County, AR",
		"long": -91.101153,
		"lat": 36.041098
	},
	"Lonoke County, AR": {
		"name": "Lonoke County, AR",
		"long": -91.894132,
		"lat": 34.755114
	},
	"Madison County, AR": {
		"name": "Madison County, AR",
		"long": -93.724053,
		"lat": 36.012545
	},
	"Miller County, AR": {
		"name": "Miller County, AR",
		"long": -93.901509,
		"lat": 33.305505
	},
	"Mississippi County, AR": {
		"name": "Mississippi County, AR",
		"long": -90.052209,
		"lat": 35.766943
	},
	"Monroe County, AR": {
		"name": "Monroe County, AR",
		"long": -91.203314,
		"lat": 34.679513
	},
	"Newton County, AR": {
		"name": "Newton County, AR",
		"long": -93.215084,
		"lat": 35.910063
	},
	"Ouachita County, AR": {
		"name": "Ouachita County, AR",
		"long": -92.878418,
		"lat": 33.591158
	},
	"Perry County, AR": {
		"name": "Perry County, AR",
		"long": -92.926877,
		"lat": 34.946363
	},
	"Poinsett County, AR": {
		"name": "Poinsett County, AR",
		"long": -90.680595,
		"lat": 35.568981
	},
	"Pope County, AR": {
		"name": "Pope County, AR",
		"long": -93.031535,
		"lat": 35.455297
	},
	"Pulaski County, AR": {
		"name": "Pulaski County, AR",
		"long": -92.316515,
		"lat": 34.773988
	},
	"Randolph County, AR": {
		"name": "Randolph County, AR",
		"long": -91.028441,
		"lat": 36.341299
	},
	"St. Francis County, AR": {
		"name": "St. Francis County, AR",
		"long": -90.742199,
		"lat": 35.014438
	},
	"Saline County, AR": {
		"name": "Saline County, AR",
		"long": -92.674463,
		"lat": 34.648525
	},
	"Sebastian County, AR": {
		"name": "Sebastian County, AR",
		"long": -94.274989,
		"lat": 35.196981
	},
	"Sharp County, AR": {
		"name": "Sharp County, AR",
		"long": -91.471069,
		"lat": 36.173399
	},
	"Union County, AR": {
		"name": "Union County, AR",
		"long": -92.598145,
		"lat": 33.168219
	},
	"Washington County, AR": {
		"name": "Washington County, AR",
		"long": -94.218417,
		"lat": 35.971209
	},
	"White County, AR": {
		"name": "White County, AR",
		"long": -91.753158,
		"lat": 35.254722
	},
	"Yell County, AR": {
		"name": "Yell County, AR",
		"long": -93.408303,
		"lat": 34.997713
	},
	"Alameda County, CA": {
		"name": "Alameda County, CA",
		"long": -121.913304,
		"lat": 37.648081
	},
	"Amador County, CA": {
		"name": "Amador County, CA",
		"long": -120.653856,
		"lat": 38.44355
	},
	"Butte County, CA": {
		"name": "Butte County, CA",
		"long": -121.601919,
		"lat": 39.665959
	},
	"Calaveras County, CA": {
		"name": "Calaveras County, CA",
		"long": -120.555115,
		"lat": 38.187844
	},
	"Colusa County, CA": {
		"name": "Colusa County, CA",
		"long": -122.237563,
		"lat": 39.177739
	},
	"Contra Costa County, CA": {
		"name": "Contra Costa County, CA",
		"long": -121.951543,
		"lat": 37.919479
	},
	"Del Norte County, CA": {
		"name": "Del Norte County, CA",
		"long": -123.980998,
		"lat": 41.749903
	},
	"El Dorado County, CA": {
		"name": "El Dorado County, CA",
		"long": -120.534398,
		"lat": 38.785532
	},
	"Fresno County, CA": {
		"name": "Fresno County, CA",
		"long": -119.655019,
		"lat": 36.761006
	},
	"Glenn County, CA": {
		"name": "Glenn County, CA",
		"long": -122.4017,
		"lat": 39.602546
	},
	"Humboldt County, CA": {
		"name": "Humboldt County, CA",
		"long": -123.925818,
		"lat": 40.706673
	},
	"Imperial County, CA": {
		"name": "Imperial County, CA",
		"long": -115.355395,
		"lat": 33.040816
	},
	"Inyo County, CA": {
		"name": "Inyo County, CA",
		"long": -117.403927,
		"lat": 36.561977
	},
	"Kern County, CA": {
		"name": "Kern County, CA",
		"long": -118.729506,
		"lat": 35.346629
	},
	"Kings County, CA": {
		"name": "Kings County, CA",
		"long": -119.81553,
		"lat": 36.072478
	},
	"Lake County, CA": {
		"name": "Lake County, CA",
		"long": -122.746757,
		"lat": 39.094802
	},
	"Los Angeles County, CA": {
		"name": "Los Angeles County, CA",
		"long": -118.261862,
		"lat": 34.196398
	},
	"Madera County, CA": {
		"name": "Madera County, CA",
		"long": -119.749852,
		"lat": 37.210039
	},
	"Marin County, CA": {
		"name": "Marin County, CA",
		"long": -122.745974,
		"lat": 38.051817
	},
	"Mendocino County, CA": {
		"name": "Mendocino County, CA",
		"long": -123.442881,
		"lat": 39.432388
	},
	"Merced County, CA": {
		"name": "Merced County, CA",
		"long": -120.722802,
		"lat": 37.194806
	},
	"Monterey County, CA": {
		"name": "Monterey County, CA",
		"long": -121.315573,
		"lat": 36.240107
	},
	"Napa County, CA": {
		"name": "Napa County, CA",
		"long": -122.325995,
		"lat": 38.507351
	},
	"Nevada County, CA": {
		"name": "Nevada County, CA",
		"long": -120.773446,
		"lat": 39.295191
	},
	"Orange County, CA": {
		"name": "Orange County, CA",
		"long": -117.777207,
		"lat": 33.675687
	},
	"Placer County, CA": {
		"name": "Placer County, CA",
		"long": -120.722718,
		"lat": 39.062032
	},
	"Plumas County, CA": {
		"name": "Plumas County, CA",
		"long": -120.829516,
		"lat": 39.99517
	},
	"Riverside County, CA": {
		"name": "Riverside County, CA",
		"long": -116.002239,
		"lat": 33.729828
	},
	"Sacramento County, CA": {
		"name": "Sacramento County, CA",
		"long": -121.340441,
		"lat": 38.450011
	},
	"San Benito County, CA": {
		"name": "San Benito County, CA",
		"long": -121.085296,
		"lat": 36.610702
	},
	"San Bernardino County, CA": {
		"name": "San Bernardino County, CA",
		"long": -116.181197,
		"lat": 34.85722
	},
	"San Diego County, CA": {
		"name": "San Diego County, CA",
		"long": -116.776117,
		"lat": 33.023604
	},
	"San Francisco County, CA": {
		"name": "San Francisco County, CA",
		"long": -123.032229,
		"lat": 37.727239
	},
	"San Joaquin County, CA": {
		"name": "San Joaquin County, CA",
		"long": -121.272237,
		"lat": 37.935034
	},
	"San Luis Obispo County, CA": {
		"name": "San Luis Obispo County, CA",
		"long": -120.44754,
		"lat": 35.385227
	},
	"San Mateo County, CA": {
		"name": "San Mateo County, CA",
		"long": -122.371542,
		"lat": 37.414664
	},
	"Santa Barbara County, CA": {
		"name": "Santa Barbara County, CA",
		"long": -120.038485,
		"lat": 34.537378
	},
	"Santa Clara County, CA": {
		"name": "Santa Clara County, CA",
		"long": -121.690622,
		"lat": 37.220777
	},
	"Santa Cruz County, CA": {
		"name": "Santa Cruz County, CA",
		"long": -122.007205,
		"lat": 37.012488
	},
	"Shasta County, CA": {
		"name": "Shasta County, CA",
		"long": -122.04355,
		"lat": 40.760522
	},
	"Solano County, CA": {
		"name": "Solano County, CA",
		"long": -121.939594,
		"lat": 38.267226
	},
	"Sonoma County, CA": {
		"name": "Sonoma County, CA",
		"long": -122.945194,
		"lat": 38.532574
	},
	"Stanislaus County, CA": {
		"name": "Stanislaus County, CA",
		"long": -121.002656,
		"lat": 37.562384
	},
	"Sutter County, CA": {
		"name": "Sutter County, CA",
		"long": -121.702758,
		"lat": 39.035257
	},
	"Tehama County, CA": {
		"name": "Tehama County, CA",
		"long": -122.232276,
		"lat": 40.126156
	},
	"Tulare County, CA": {
		"name": "Tulare County, CA",
		"long": -118.780542,
		"lat": 36.230453
	},
	"Tuolumne County, CA": {
		"name": "Tuolumne County, CA",
		"long": -119.964708,
		"lat": 38.021451
	},
	"Ventura County, CA": {
		"name": "Ventura County, CA",
		"long": -119.133143,
		"lat": 34.358742
	},
	"Yolo County, CA": {
		"name": "Yolo County, CA",
		"long": -121.903178,
		"lat": 38.679268
	},
	"Yuba County, CA": {
		"name": "Yuba County, CA",
		"long": -121.34428,
		"lat": 39.270026
	},
	"Adams County, CO": {
		"name": "Adams County, CO",
		"long": -104.331872,
		"lat": 39.874325
	},
	"Alamosa County, CO": {
		"name": "Alamosa County, CO",
		"long": -105.788041,
		"lat": 37.568442
	},
	"Arapahoe County, CO": {
		"name": "Arapahoe County, CO",
		"long": -104.331733,
		"lat": 39.644632
	},
	"Archuleta County, CO": {
		"name": "Archuleta County, CO",
		"long": -107.050863,
		"lat": 37.202395
	},
	"Boulder County, CO": {
		"name": "Boulder County, CO",
		"long": -105.398382,
		"lat": 40.094826
	},
	"Broomfield County, CO": {
		"name": "Broomfield County, CO",
		"long": -105.052125,
		"lat": 39.953383
	},
	"Clear Creek County, CO": {
		"name": "Clear Creek County, CO",
		"long": -105.670791,
		"lat": 39.689403
	},
	"Delta County, CO": {
		"name": "Delta County, CO",
		"long": -107.864757,
		"lat": 38.861756
	},
	"Denver County, CO": {
		"name": "Denver County, CO",
		"long": -104.880625,
		"lat": 39.761849
	},
	"Douglas County, CO": {
		"name": "Douglas County, CO",
		"long": -104.926199,
		"lat": 39.326435
	},
	"Eagle County, CO": {
		"name": "Eagle County, CO",
		"long": -106.692944,
		"lat": 39.630638
	},
	"Elbert County, CO": {
		"name": "Elbert County, CO",
		"long": -104.117928,
		"lat": 39.310817
	},
	"El Paso County, CO": {
		"name": "El Paso County, CO",
		"long": -104.527472,
		"lat": 38.827383
	},
	"Fremont County, CO": {
		"name": "Fremont County, CO",
		"long": -105.421438,
		"lat": 38.455658
	},
	"Garfield County, CO": {
		"name": "Garfield County, CO",
		"long": -107.90978,
		"lat": 39.599352
	},
	"Grand County, CO": {
		"name": "Grand County, CO",
		"long": -106.095876,
		"lat": 40.123289
	},
	"Jefferson County, CO": {
		"name": "Jefferson County, CO",
		"long": -105.245601,
		"lat": 39.58646
	},
	"Lake County, CO": {
		"name": "Lake County, CO",
		"long": -106.349696,
		"lat": 39.204316
	},
	"La Plata County, CO": {
		"name": "La Plata County, CO",
		"long": -107.839718,
		"lat": 37.287367
	},
	"Larimer County, CO": {
		"name": "Larimer County, CO",
		"long": -105.482131,
		"lat": 40.663091
	},
	"Logan County, CO": {
		"name": "Logan County, CO",
		"long": -103.090464,
		"lat": 40.728091
	},
	"Mesa County, CO": {
		"name": "Mesa County, CO",
		"long": -108.461837,
		"lat": 39.019492
	},
	"Montezuma County, CO": {
		"name": "Montezuma County, CO",
		"long": -108.595786,
		"lat": 37.338025
	},
	"Montrose County, CO": {
		"name": "Montrose County, CO",
		"long": -108.263042,
		"lat": 38.413427
	},
	"Morgan County, CO": {
		"name": "Morgan County, CO",
		"long": -103.807092,
		"lat": 40.262354
	},
	"Ouray County, CO": {
		"name": "Ouray County, CO",
		"long": -107.767133,
		"lat": 38.1506
	},
	"Park County, CO": {
		"name": "Park County, CO",
		"long": -105.717648,
		"lat": 39.118914
	},
	"Pitkin County, CO": {
		"name": "Pitkin County, CO",
		"long": -106.915943,
		"lat": 39.217533
	},
	"Pueblo County, CO": {
		"name": "Pueblo County, CO",
		"long": -104.489893,
		"lat": 38.170658
	},
	"Rio Blanco County, CO": {
		"name": "Rio Blanco County, CO",
		"long": -108.200685,
		"lat": 39.972606
	},
	"Rio Grande County, CO": {
		"name": "Rio Grande County, CO",
		"long": -106.453214,
		"lat": 37.485763
	},
	"San Miguel County, CO": {
		"name": "San Miguel County, CO",
		"long": -108.427326,
		"lat": 38.009374
	},
	"Summit County, CO": {
		"name": "Summit County, CO",
		"long": -106.137555,
		"lat": 39.621023
	},
	"Teller County, CO": {
		"name": "Teller County, CO",
		"long": -105.182552,
		"lat": 38.871994
	},
	"Weld County, CO": {
		"name": "Weld County, CO",
		"long": -104.383649,
		"lat": 40.555794
	},
	"Fairfield County, CT": {
		"name": "Fairfield County, CT",
		"long": -73.366757,
		"lat": 41.228103
	},
	"Hartford County, CT": {
		"name": "Hartford County, CT",
		"long": -72.732916,
		"lat": 41.806053
	},
	"Litchfield County, CT": {
		"name": "Litchfield County, CT",
		"long": -73.235428,
		"lat": 41.791897
	},
	"Middlesex County, CT": {
		"name": "Middlesex County, CT",
		"long": -72.524227,
		"lat": 41.434525
	},
	"New Haven County, CT": {
		"name": "New Haven County, CT",
		"long": -72.900204,
		"lat": 41.349717
	},
	"New London County, CT": {
		"name": "New London County, CT",
		"long": -72.103452,
		"lat": 41.47863
	},
	"Tolland County, CT": {
		"name": "Tolland County, CT",
		"long": -72.340977,
		"lat": 41.858076
	},
	"Windham County, CT": {
		"name": "Windham County, CT",
		"long": -71.990702,
		"lat": 41.824999
	},
	"Kent County, DE": {
		"name": "Kent County, DE",
		"long": -75.502982,
		"lat": 39.097088
	},
	"New Castle County, DE": {
		"name": "New Castle County, DE",
		"long": -75.644132,
		"lat": 39.575915
	},
	"Sussex County, DE": {
		"name": "Sussex County, DE",
		"long": -75.335495,
		"lat": 38.677511
	},
	"Alachua County, FL": {
		"name": "Alachua County, FL",
		"long": -82.357221,
		"lat": 29.67574
	},
	"Baker County, FL": {
		"name": "Baker County, FL",
		"long": -82.302284,
		"lat": 30.324442
	},
	"Bay County, FL": {
		"name": "Bay County, FL",
		"long": -85.631348,
		"lat": 30.237563
	},
	"Bradford County, FL": {
		"name": "Bradford County, FL",
		"long": -82.166796,
		"lat": 29.946934
	},
	"Brevard County, FL": {
		"name": "Brevard County, FL",
		"long": -80.700384,
		"lat": 28.298276
	},
	"Broward County, FL": {
		"name": "Broward County, FL",
		"long": -80.476658,
		"lat": 26.19352
	},
	"Calhoun County, FL": {
		"name": "Calhoun County, FL",
		"long": -85.197916,
		"lat": 30.388801
	},
	"Charlotte County, FL": {
		"name": "Charlotte County, FL",
		"long": -81.940858,
		"lat": 26.868826
	},
	"Citrus County, FL": {
		"name": "Citrus County, FL",
		"long": -82.524796,
		"lat": 28.843628
	},
	"Clay County, FL": {
		"name": "Clay County, FL",
		"long": -81.858147,
		"lat": 29.987116
	},
	"Collier County, FL": {
		"name": "Collier County, FL",
		"long": -81.400884,
		"lat": 26.118713
	},
	"Columbia County, FL": {
		"name": "Columbia County, FL",
		"long": -82.623127,
		"lat": 30.221305
	},
	"DeSoto County, FL": {
		"name": "DeSoto County, FL",
		"long": -81.806253,
		"lat": 27.190581
	},
	"Dixie County, FL": {
		"name": "Dixie County, FL",
		"long": -83.195666,
		"lat": 29.580899
	},
	"Duval County, FL": {
		"name": "Duval County, FL",
		"long": -81.648113,
		"lat": 30.335245
	},
	"Escambia County, FL": {
		"name": "Escambia County, FL",
		"long": -87.33904,
		"lat": 30.611664
	},
	"Flagler County, FL": {
		"name": "Flagler County, FL",
		"long": -81.286362,
		"lat": 29.474894
	},
	"Gadsden County, FL": {
		"name": "Gadsden County, FL",
		"long": -84.612783,
		"lat": 30.57917
	},
	"Gulf County, FL": {
		"name": "Gulf County, FL",
		"long": -85.256537,
		"lat": 29.907257
	},
	"Hamilton County, FL": {
		"name": "Hamilton County, FL",
		"long": -82.951049,
		"lat": 30.491102
	},
	"Hardee County, FL": {
		"name": "Hardee County, FL",
		"long": -81.82158,
		"lat": 27.492846
	},
	"Hernando County, FL": {
		"name": "Hernando County, FL",
		"long": -82.464835,
		"lat": 28.567911
	},
	"Highlands County, FL": {
		"name": "Highlands County, FL",
		"long": -81.340921,
		"lat": 27.342627
	},
	"Hillsborough County, FL": {
		"name": "Hillsborough County, FL",
		"long": -82.349568,
		"lat": 27.90659
	},
	"Indian River County, FL": {
		"name": "Indian River County, FL",
		"long": -80.574803,
		"lat": 27.700638
	},
	"Jackson County, FL": {
		"name": "Jackson County, FL",
		"long": -85.210374,
		"lat": 30.787812
	},
	"Lake County, FL": {
		"name": "Lake County, FL",
		"long": -81.712282,
		"lat": 28.764113
	},
	"Lee County, FL": {
		"name": "Lee County, FL",
		"long": -81.89225,
		"lat": 26.552134
	},
	"Leon County, FL": {
		"name": "Leon County, FL",
		"long": -84.2778,
		"lat": 30.45931
	},
	"Levy County, FL": {
		"name": "Levy County, FL",
		"long": -82.783483,
		"lat": 29.284409
	},
	"Liberty County, FL": {
		"name": "Liberty County, FL",
		"long": -84.868581,
		"lat": 30.259849
	},
	"Madison County, FL": {
		"name": "Madison County, FL",
		"long": -83.470437,
		"lat": 30.447228
	},
	"Manatee County, FL": {
		"name": "Manatee County, FL",
		"long": -82.365784,
		"lat": 27.481386
	},
	"Marion County, FL": {
		"name": "Marion County, FL",
		"long": -82.0431,
		"lat": 29.202805
	},
	"Martin County, FL": {
		"name": "Martin County, FL",
		"long": -80.398211,
		"lat": 27.079954
	},
	"Miami-Dade County, FL": {
		"name": "Miami-Dade County, FL",
		"long": -80.499045,
		"lat": 25.610494
	},
	"Monroe County, FL": {
		"name": "Monroe County, FL",
		"long": -81.206777,
		"lat": 25.601043
	},
	"Nassau County, FL": {
		"name": "Nassau County, FL",
		"long": -81.764929,
		"lat": 30.605926
	},
	"Okaloosa County, FL": {
		"name": "Okaloosa County, FL",
		"long": -86.594194,
		"lat": 30.665858
	},
	"Orange County, FL": {
		"name": "Orange County, FL",
		"long": -81.323295,
		"lat": 28.514435
	},
	"Osceola County, FL": {
		"name": "Osceola County, FL",
		"long": -81.139312,
		"lat": 28.059027
	},
	"Palm Beach County, FL": {
		"name": "Palm Beach County, FL",
		"long": -80.448673,
		"lat": 26.645763
	},
	"Pasco County, FL": {
		"name": "Pasco County, FL",
		"long": -82.455707,
		"lat": 28.302024
	},
	"Pinellas County, FL": {
		"name": "Pinellas County, FL",
		"long": -82.739518,
		"lat": 27.903122
	},
	"Polk County, FL": {
		"name": "Polk County, FL",
		"long": -81.692783,
		"lat": 27.953115
	},
	"Putnam County, FL": {
		"name": "Putnam County, FL",
		"long": -81.740894,
		"lat": 29.606006
	},
	"St. Johns County, FL": {
		"name": "St. Johns County, FL",
		"long": -81.383914,
		"lat": 29.890593
	},
	"St. Lucie County, FL": {
		"name": "St. Lucie County, FL",
		"long": -80.443364,
		"lat": 27.380775
	},
	"Santa Rosa County, FL": {
		"name": "Santa Rosa County, FL",
		"long": -87.014255,
		"lat": 30.703633
	},
	"Sarasota County, FL": {
		"name": "Sarasota County, FL",
		"long": -82.365835,
		"lat": 27.184386
	},
	"Seminole County, FL": {
		"name": "Seminole County, FL",
		"long": -81.13198,
		"lat": 28.690079
	},
	"Sumter County, FL": {
		"name": "Sumter County, FL",
		"long": -82.074715,
		"lat": 28.714294
	},
	"Suwannee County, FL": {
		"name": "Suwannee County, FL",
		"long": -82.992754,
		"lat": 30.189244
	},
	"Taylor County, FL": {
		"name": "Taylor County, FL",
		"long": -83.616417,
		"lat": 30.016943
	},
	"Union County, FL": {
		"name": "Union County, FL",
		"long": -82.366918,
		"lat": 30.05428
	},
	"Volusia County, FL": {
		"name": "Volusia County, FL",
		"long": -81.161813,
		"lat": 29.057617
	},
	"Wakulla County, FL": {
		"name": "Wakulla County, FL",
		"long": -84.375136,
		"lat": 30.140378
	},
	"Walton County, FL": {
		"name": "Walton County, FL",
		"long": -86.176614,
		"lat": 30.631211
	},
	"Appling County, GA": {
		"name": "Appling County, GA",
		"long": -82.290103,
		"lat": 31.739712
	},
	"Baldwin County, GA": {
		"name": "Baldwin County, GA",
		"long": -83.255362,
		"lat": 33.059532
	},
	"Barrow County, GA": {
		"name": "Barrow County, GA",
		"long": -83.712303,
		"lat": 33.992009
	},
	"Bartow County, GA": {
		"name": "Bartow County, GA",
		"long": -84.838188,
		"lat": 34.240918
	},
	"Bibb County, GA": {
		"name": "Bibb County, GA",
		"long": -83.694193,
		"lat": 32.808844
	},
	"Brantley County, GA": {
		"name": "Brantley County, GA",
		"long": -81.982978,
		"lat": 31.197334
	},
	"Brooks County, GA": {
		"name": "Brooks County, GA",
		"long": -83.588971,
		"lat": 30.833696
	},
	"Bryan County, GA": {
		"name": "Bryan County, GA",
		"long": -81.438543,
		"lat": 32.017969
	},
	"Bulloch County, GA": {
		"name": "Bulloch County, GA",
		"long": -81.74381,
		"lat": 32.393408
	},
	"Burke County, GA": {
		"name": "Burke County, GA",
		"long": -82.00389,
		"lat": 33.063737
	},
	"Butts County, GA": {
		"name": "Butts County, GA",
		"long": -83.958221,
		"lat": 33.290355
	},
	"Camden County, GA": {
		"name": "Camden County, GA",
		"long": -81.636516,
		"lat": 30.916358
	},
	"Carroll County, GA": {
		"name": "Carroll County, GA",
		"long": -85.080527,
		"lat": 33.582237
	},
	"Catoosa County, GA": {
		"name": "Catoosa County, GA",
		"long": -85.137353,
		"lat": 34.899393
	},
	"Chatham County, GA": {
		"name": "Chatham County, GA",
		"long": -81.091768,
		"lat": 31.974756
	},
	"Chattahoochee County, GA": {
		"name": "Chattahoochee County, GA",
		"long": -84.788021,
		"lat": 32.347445
	},
	"Cherokee County, GA": {
		"name": "Cherokee County, GA",
		"long": -84.475057,
		"lat": 34.244317
	},
	"Clarke County, GA": {
		"name": "Clarke County, GA",
		"long": -83.36713,
		"lat": 33.952234
	},
	"Clayton County, GA": {
		"name": "Clayton County, GA",
		"long": -84.412977,
		"lat": 33.552242
	},
	"Cobb County, GA": {
		"name": "Cobb County, GA",
		"long": -84.574166,
		"lat": 33.93994
	},
	"Coffee County, GA": {
		"name": "Coffee County, GA",
		"long": -82.844938,
		"lat": 31.549245
	},
	"Colquitt County, GA": {
		"name": "Colquitt County, GA",
		"long": -83.769741,
		"lat": 31.189758
	},
	"Columbia County, GA": {
		"name": "Columbia County, GA",
		"long": -82.251342,
		"lat": 33.550556
	},
	"Coweta County, GA": {
		"name": "Coweta County, GA",
		"long": -84.762138,
		"lat": 33.352897
	},
	"Crawford County, GA": {
		"name": "Crawford County, GA",
		"long": -83.979182,
		"lat": 32.709446
	},
	"Crisp County, GA": {
		"name": "Crisp County, GA",
		"long": -83.753338,
		"lat": 31.914753
	},
	"Dawson County, GA": {
		"name": "Dawson County, GA",
		"long": -84.173284,
		"lat": 34.442842
	},
	"Decatur County, GA": {
		"name": "Decatur County, GA",
		"long": -84.577744,
		"lat": 30.877961
	},
	"DeKalb County, GA": {
		"name": "DeKalb County, GA",
		"long": -84.226343,
		"lat": 33.770661
	},
	"Dougherty County, GA": {
		"name": "Dougherty County, GA",
		"long": -84.214444,
		"lat": 31.535068
	},
	"Douglas County, GA": {
		"name": "Douglas County, GA",
		"long": -84.765944,
		"lat": 33.699317
	},
	"Effingham County, GA": {
		"name": "Effingham County, GA",
		"long": -81.343337,
		"lat": 32.361711
	},
	"Emanuel County, GA": {
		"name": "Emanuel County, GA",
		"long": -82.299763,
		"lat": 32.5911
	},
	"Evans County, GA": {
		"name": "Evans County, GA",
		"long": -81.887618,
		"lat": 32.151902
	},
	"Fannin County, GA": {
		"name": "Fannin County, GA",
		"long": -84.319287,
		"lat": 34.863837
	},
	"Fayette County, GA": {
		"name": "Fayette County, GA",
		"long": -84.493941,
		"lat": 33.412717
	},
	"Floyd County, GA": {
		"name": "Floyd County, GA",
		"long": -85.21373,
		"lat": 34.263677
	},
	"Forsyth County, GA": {
		"name": "Forsyth County, GA",
		"long": -84.127336,
		"lat": 34.225143
	},
	"Franklin County, GA": {
		"name": "Franklin County, GA",
		"long": -83.227291,
		"lat": 34.375155
	},
	"Fulton County, GA": {
		"name": "Fulton County, GA",
		"long": -84.468182,
		"lat": 33.790034
	},
	"Gilmer County, GA": {
		"name": "Gilmer County, GA",
		"long": -84.453984,
		"lat": 34.690541
	},
	"Glynn County, GA": {
		"name": "Glynn County, GA",
		"long": -81.496517,
		"lat": 31.212747
	},
	"Gordon County, GA": {
		"name": "Gordon County, GA",
		"long": -84.873862,
		"lat": 34.509667
	},
	"Grady County, GA": {
		"name": "Grady County, GA",
		"long": -84.244772,
		"lat": 30.875863
	},
	"Gwinnett County, GA": {
		"name": "Gwinnett County, GA",
		"long": -84.022938,
		"lat": 33.959101
	},
	"Habersham County, GA": {
		"name": "Habersham County, GA",
		"long": -83.526406,
		"lat": 34.635108
	},
	"Hall County, GA": {
		"name": "Hall County, GA",
		"long": -83.818497,
		"lat": 34.317588
	},
	"Haralson County, GA": {
		"name": "Haralson County, GA",
		"long": -85.220062,
		"lat": 33.795165
	},
	"Harris County, GA": {
		"name": "Harris County, GA",
		"long": -84.912432,
		"lat": 32.731549
	},
	"Henry County, GA": {
		"name": "Henry County, GA",
		"long": -84.15444,
		"lat": 33.452881
	},
	"Houston County, GA": {
		"name": "Houston County, GA",
		"long": -83.662856,
		"lat": 32.458381
	},
	"Jackson County, GA": {
		"name": "Jackson County, GA",
		"long": -83.565133,
		"lat": 34.134157
	},
	"Jefferson County, GA": {
		"name": "Jefferson County, GA",
		"long": -82.41905,
		"lat": 33.051874
	},
	"Jones County, GA": {
		"name": "Jones County, GA",
		"long": -83.562339,
		"lat": 33.020226
	},
	"Lanier County, GA": {
		"name": "Lanier County, GA",
		"long": -83.063164,
		"lat": 31.038197
	},
	"Laurens County, GA": {
		"name": "Laurens County, GA",
		"long": -82.926317,
		"lat": 32.39322
	},
	"Lee County, GA": {
		"name": "Lee County, GA",
		"long": -84.146681,
		"lat": 31.818419
	},
	"Liberty County, GA": {
		"name": "Liberty County, GA",
		"long": -81.457969,
		"lat": 31.807245
	},
	"Long County, GA": {
		"name": "Long County, GA",
		"long": -81.74287,
		"lat": 31.749563
	},
	"Lowndes County, GA": {
		"name": "Lowndes County, GA",
		"long": -83.268967,
		"lat": 30.83368
	},
	"Lumpkin County, GA": {
		"name": "Lumpkin County, GA",
		"long": -83.998828,
		"lat": 34.568149
	},
	"McDuffie County, GA": {
		"name": "McDuffie County, GA",
		"long": -82.473188,
		"lat": 33.482464
	},
	"McIntosh County, GA": {
		"name": "McIntosh County, GA",
		"long": -81.370199,
		"lat": 31.482978
	},
	"Madison County, GA": {
		"name": "Madison County, GA",
		"long": -83.203637,
		"lat": 34.128486
	},
	"Marion County, GA": {
		"name": "Marion County, GA",
		"long": -84.529561,
		"lat": 32.359538
	},
	"Meriwether County, GA": {
		"name": "Meriwether County, GA",
		"long": -84.663279,
		"lat": 33.03022
	},
	"Montgomery County, GA": {
		"name": "Montgomery County, GA",
		"long": -82.533349,
		"lat": 32.172108
	},
	"Morgan County, GA": {
		"name": "Morgan County, GA",
		"long": -83.492324,
		"lat": 33.593732
	},
	"Murray County, GA": {
		"name": "Murray County, GA",
		"long": -84.73799,
		"lat": 34.797097
	},
	"Muscogee County, GA": {
		"name": "Muscogee County, GA",
		"long": -84.874946,
		"lat": 32.510197
	},
	"Newton County, GA": {
		"name": "Newton County, GA",
		"long": -83.855189,
		"lat": 33.544046
	},
	"Oconee County, GA": {
		"name": "Oconee County, GA",
		"long": -83.437728,
		"lat": 33.834125
	},
	"Oglethorpe County, GA": {
		"name": "Oglethorpe County, GA",
		"long": -83.074081,
		"lat": 33.866806
	},
	"Paulding County, GA": {
		"name": "Paulding County, GA",
		"long": -84.866979,
		"lat": 33.920903
	},
	"Peach County, GA": {
		"name": "Peach County, GA",
		"long": -83.831978,
		"lat": 32.571324
	},
	"Pickens County, GA": {
		"name": "Pickens County, GA",
		"long": -84.490256,
		"lat": 34.456621
	},
	"Pierce County, GA": {
		"name": "Pierce County, GA",
		"long": -82.210427,
		"lat": 31.353988
	},
	"Pike County, GA": {
		"name": "Pike County, GA",
		"long": -84.386627,
		"lat": 33.090769
	},
	"Polk County, GA": {
		"name": "Polk County, GA",
		"long": -85.186826,
		"lat": 33.995961
	},
	"Richmond County, GA": {
		"name": "Richmond County, GA",
		"long": -82.074998,
		"lat": 33.361487
	},
	"Rockdale County, GA": {
		"name": "Rockdale County, GA",
		"long": -84.02637,
		"lat": 33.652081
	},
	"Screven County, GA": {
		"name": "Screven County, GA",
		"long": -81.617585,
		"lat": 32.744751
	},
	"Spalding County, GA": {
		"name": "Spalding County, GA",
		"long": -84.286067,
		"lat": 33.262389
	},
	"Stephens County, GA": {
		"name": "Stephens County, GA",
		"long": -83.290216,
		"lat": 34.552914
	},
	"Terrell County, GA": {
		"name": "Terrell County, GA",
		"long": -84.439446,
		"lat": 31.777191
	},
	"Thomas County, GA": {
		"name": "Thomas County, GA",
		"long": -83.919783,
		"lat": 30.864616
	},
	"Toombs County, GA": {
		"name": "Toombs County, GA",
		"long": -82.332071,
		"lat": 32.126698
	},
	"Towns County, GA": {
		"name": "Towns County, GA",
		"long": -83.732158,
		"lat": 34.90265
	},
	"Troup County, GA": {
		"name": "Troup County, GA",
		"long": -85.02836,
		"lat": 33.034482
	},
	"Twiggs County, GA": {
		"name": "Twiggs County, GA",
		"long": -83.425879,
		"lat": 32.665847
	},
	"Union County, GA": {
		"name": "Union County, GA",
		"long": -83.989573,
		"lat": 34.83377
	},
	"Upson County, GA": {
		"name": "Upson County, GA",
		"long": -84.292281,
		"lat": 32.881837
	},
	"Walker County, GA": {
		"name": "Walker County, GA",
		"long": -85.305385,
		"lat": 34.735827
	},
	"Walton County, GA": {
		"name": "Walton County, GA",
		"long": -83.734215,
		"lat": 33.782649
	},
	"Ware County, GA": {
		"name": "Ware County, GA",
		"long": -82.421507,
		"lat": 31.050881
	},
	"Wayne County, GA": {
		"name": "Wayne County, GA",
		"long": -81.912376,
		"lat": 31.547845
	},
	"White County, GA": {
		"name": "White County, GA",
		"long": -83.743713,
		"lat": 34.643677
	},
	"Whitfield County, GA": {
		"name": "Whitfield County, GA",
		"long": -84.968541,
		"lat": 34.801726
	},
	"Hawaii County, HI": {
		"name": "Hawaii County, HI",
		"long": -155.502443,
		"lat": 19.597764
	},
	"Honolulu County, HI": {
		"name": "Honolulu County, HI",
		"long": -158.201976,
		"lat": 21.461364
	},
	"Maui County, HI": {
		"name": "Maui County, HI",
		"long": -156.60155,
		"lat": 20.855931
	},
	"Ada County, ID": {
		"name": "Ada County, ID",
		"long": -116.244456,
		"lat": 43.447861
	},
	"Bannock County, ID": {
		"name": "Bannock County, ID",
		"long": -112.228986,
		"lat": 42.692939
	},
	"Benewah County, ID": {
		"name": "Benewah County, ID",
		"long": -116.633541,
		"lat": 47.218451
	},
	"Bingham County, ID": {
		"name": "Bingham County, ID",
		"long": -112.399206,
		"lat": 43.216357
	},
	"Blaine County, ID": {
		"name": "Blaine County, ID",
		"long": -113.95529,
		"lat": 43.394482
	},
	"Bonner County, ID": {
		"name": "Bonner County, ID",
		"long": -116.59694,
		"lat": 48.312512
	},
	"Bonneville County, ID": {
		"name": "Bonneville County, ID",
		"long": -111.621878,
		"lat": 43.395171
	},
	"Canyon County, ID": {
		"name": "Canyon County, ID",
		"long": -116.708527,
		"lat": 43.623051
	},
	"Cassia County, ID": {
		"name": "Cassia County, ID",
		"long": -113.605498,
		"lat": 42.288635
	},
	"Elmore County, ID": {
		"name": "Elmore County, ID",
		"long": -115.470751,
		"lat": 43.394826
	},
	"Franklin County, ID": {
		"name": "Franklin County, ID",
		"long": -111.822955,
		"lat": 42.173589
	},
	"Gooding County, ID": {
		"name": "Gooding County, ID",
		"long": -114.82142,
		"lat": 42.973185
	},
	"Idaho County, ID": {
		"name": "Idaho County, ID",
		"long": -115.467376,
		"lat": 45.849237
	},
	"Jefferson County, ID": {
		"name": "Jefferson County, ID",
		"long": -112.318588,
		"lat": 43.796965
	},
	"Jerome County, ID": {
		"name": "Jerome County, ID",
		"long": -114.263009,
		"lat": 42.691172
	},
	"Kootenai County, ID": {
		"name": "Kootenai County, ID",
		"long": -116.694918,
		"lat": 47.677113
	},
	"Latah County, ID": {
		"name": "Latah County, ID",
		"long": -116.730974,
		"lat": 46.81892
	},
	"Lewis County, ID": {
		"name": "Lewis County, ID",
		"long": -116.42376,
		"lat": 46.236328
	},
	"Lincoln County, ID": {
		"name": "Lincoln County, ID",
		"long": -114.153899,
		"lat": 42.986181
	},
	"Madison County, ID": {
		"name": "Madison County, ID",
		"long": -111.65655,
		"lat": 43.789709
	},
	"Minidoka County, ID": {
		"name": "Minidoka County, ID",
		"long": -113.64001,
		"lat": 42.856937
	},
	"Nez Perce County, ID": {
		"name": "Nez Perce County, ID",
		"long": -116.760903,
		"lat": 46.333766
	},
	"Owyhee County, ID": {
		"name": "Owyhee County, ID",
		"long": -116.142655,
		"lat": 42.593063
	},
	"Payette County, ID": {
		"name": "Payette County, ID",
		"long": -116.748655,
		"lat": 44.00274
	},
	"Power County, ID": {
		"name": "Power County, ID",
		"long": -112.844407,
		"lat": 42.694126
	},
	"Teton County, ID": {
		"name": "Teton County, ID",
		"long": -111.211765,
		"lat": 43.760994
	},
	"Twin Falls County, ID": {
		"name": "Twin Falls County, ID",
		"long": -114.665639,
		"lat": 42.352309
	},
	"Adams County, IL": {
		"name": "Adams County, IL",
		"long": -91.194961,
		"lat": 39.986053
	},
	"Alexander County, IL": {
		"name": "Alexander County, IL",
		"long": -89.349506,
		"lat": 37.183683
	},
	"Boone County, IL": {
		"name": "Boone County, IL",
		"long": -88.824295,
		"lat": 42.318983
	},
	"Champaign County, IL": {
		"name": "Champaign County, IL",
		"long": -88.197201,
		"lat": 40.13915
	},
	"Christian County, IL": {
		"name": "Christian County, IL",
		"long": -89.279593,
		"lat": 39.545524
	},
	"Clark County, IL": {
		"name": "Clark County, IL",
		"long": -87.791687,
		"lat": 39.332364
	},
	"Clay County, IL": {
		"name": "Clay County, IL",
		"long": -88.483789,
		"lat": 38.747312
	},
	"Clinton County, IL": {
		"name": "Clinton County, IL",
		"long": -89.423136,
		"lat": 38.606423
	},
	"Coles County, IL": {
		"name": "Coles County, IL",
		"long": -88.220782,
		"lat": 39.51368
	},
	"Cook County, IL": {
		"name": "Cook County, IL",
		"long": -87.645455,
		"lat": 41.894294
	},
	"DeKalb County, IL": {
		"name": "DeKalb County, IL",
		"long": -88.768991,
		"lat": 41.894613
	},
	"De Witt County, IL": {
		"name": "De Witt County, IL",
		"long": -88.901853,
		"lat": 40.181499
	},
	"DuPage County, IL": {
		"name": "DuPage County, IL",
		"long": -88.086038,
		"lat": 41.852058
	},
	"Edgar County, IL": {
		"name": "Edgar County, IL",
		"long": -87.74711,
		"lat": 39.679037
	},
	"Effingham County, IL": {
		"name": "Effingham County, IL",
		"long": -88.592786,
		"lat": 39.047694
	},
	"Franklin County, IL": {
		"name": "Franklin County, IL",
		"long": -88.926246,
		"lat": 37.991848
	},
	"Fulton County, IL": {
		"name": "Fulton County, IL",
		"long": -90.206793,
		"lat": 40.465688
	},
	"Grundy County, IL": {
		"name": "Grundy County, IL",
		"long": -88.401055,
		"lat": 41.29241
	},
	"Jackson County, IL": {
		"name": "Jackson County, IL",
		"long": -89.381212,
		"lat": 37.786096
	},
	"Jo Daviess County, IL": {
		"name": "Jo Daviess County, IL",
		"long": -90.211471,
		"lat": 42.362391
	},
	"Johnson County, IL": {
		"name": "Johnson County, IL",
		"long": -88.882962,
		"lat": 37.460815
	},
	"Kane County, IL": {
		"name": "Kane County, IL",
		"long": -88.42804,
		"lat": 41.939594
	},
	"Kankakee County, IL": {
		"name": "Kankakee County, IL",
		"long": -87.861125,
		"lat": 41.139494
	},
	"Kendall County, IL": {
		"name": "Kendall County, IL",
		"long": -88.430626,
		"lat": 41.58814
	},
	"Lake County, IL": {
		"name": "Lake County, IL",
		"long": -87.436118,
		"lat": 42.326444
	},
	"LaSalle County, IL": {
		"name": "LaSalle County, IL",
		"long": -88.885931,
		"lat": 41.343341
	},
	"Lee County, IL": {
		"name": "Lee County, IL",
		"long": -89.299351,
		"lat": 41.747442
	},
	"Livingston County, IL": {
		"name": "Livingston County, IL",
		"long": -88.552852,
		"lat": 40.894376
	},
	"McDonough County, IL": {
		"name": "McDonough County, IL",
		"long": -90.677579,
		"lat": 40.455789
	},
	"McHenry County, IL": {
		"name": "McHenry County, IL",
		"long": -88.452245,
		"lat": 42.324298
	},
	"McLean County, IL": {
		"name": "McLean County, IL",
		"long": -88.844539,
		"lat": 40.494559
	},
	"Macon County, IL": {
		"name": "Macon County, IL",
		"long": -88.961529,
		"lat": 39.860237
	},
	"Madison County, IL": {
		"name": "Madison County, IL",
		"long": -89.900195,
		"lat": 38.827082
	},
	"Marion County, IL": {
		"name": "Marion County, IL",
		"long": -88.920221,
		"lat": 38.648396
	},
	"Massac County, IL": {
		"name": "Massac County, IL",
		"long": -88.705658,
		"lat": 37.216119
	},
	"Montgomery County, IL": {
		"name": "Montgomery County, IL",
		"long": -89.478007,
		"lat": 39.228092
	},
	"Ogle County, IL": {
		"name": "Ogle County, IL",
		"long": -89.320176,
		"lat": 42.041884
	},
	"Peoria County, IL": {
		"name": "Peoria County, IL",
		"long": -89.767358,
		"lat": 40.785999
	},
	"Rock Island County, IL": {
		"name": "Rock Island County, IL",
		"long": -90.572203,
		"lat": 41.468404
	},
	"St. Clair County, IL": {
		"name": "St. Clair County, IL",
		"long": -89.928546,
		"lat": 38.470198
	},
	"Saline County, IL": {
		"name": "Saline County, IL",
		"long": -88.545031,
		"lat": 37.751653
	},
	"Sangamon County, IL": {
		"name": "Sangamon County, IL",
		"long": -89.662311,
		"lat": 39.756378
	},
	"Stephenson County, IL": {
		"name": "Stephenson County, IL",
		"long": -89.665994,
		"lat": 42.349726
	},
	"Tazewell County, IL": {
		"name": "Tazewell County, IL",
		"long": -89.51626,
		"lat": 40.508074
	},
	"Vermilion County, IL": {
		"name": "Vermilion County, IL",
		"long": -87.726772,
		"lat": 40.18674
	},
	"Whiteside County, IL": {
		"name": "Whiteside County, IL",
		"long": -89.910957,
		"lat": 41.750571
	},
	"Will County, IL": {
		"name": "Will County, IL",
		"long": -87.978456,
		"lat": 41.448474
	},
	"Williamson County, IL": {
		"name": "Williamson County, IL",
		"long": -88.930018,
		"lat": 37.730353
	},
	"Winnebago County, IL": {
		"name": "Winnebago County, IL",
		"long": -89.161205,
		"lat": 42.337396
	},
	"Woodford County, IL": {
		"name": "Woodford County, IL",
		"long": -89.210301,
		"lat": 40.789596
	},
	"Adams County, IN": {
		"name": "Adams County, IN",
		"long": -84.936131,
		"lat": 40.745733
	},
	"Allen County, IN": {
		"name": "Allen County, IN",
		"long": -85.07223,
		"lat": 41.091855
	},
	"Bartholomew County, IN": {
		"name": "Bartholomew County, IN",
		"long": -85.897999,
		"lat": 39.205843
	},
	"Boone County, IN": {
		"name": "Boone County, IN",
		"long": -86.469014,
		"lat": 40.050892
	},
	"Carroll County, IN": {
		"name": "Carroll County, IN",
		"long": -86.565141,
		"lat": 40.58498
	},
	"Cass County, IN": {
		"name": "Cass County, IN",
		"long": -86.355169,
		"lat": 40.753799
	},
	"Clark County, IN": {
		"name": "Clark County, IN",
		"long": -85.711122,
		"lat": 38.476217
	},
	"Clay County, IN": {
		"name": "Clay County, IN",
		"long": -87.115837,
		"lat": 39.393951
	},
	"Clinton County, IN": {
		"name": "Clinton County, IN",
		"long": -86.477567,
		"lat": 40.305944
	},
	"Daviess County, IN": {
		"name": "Daviess County, IN",
		"long": -87.076988,
		"lat": 38.696155
	},
	"Dearborn County, IN": {
		"name": "Dearborn County, IN",
		"long": -84.97346,
		"lat": 39.151491
	},
	"DeKalb County, IN": {
		"name": "DeKalb County, IN",
		"long": -85.000185,
		"lat": 41.401189
	},
	"Delaware County, IN": {
		"name": "Delaware County, IN",
		"long": -85.398856,
		"lat": 40.227165
	},
	"Elkhart County, IN": {
		"name": "Elkhart County, IN",
		"long": -85.863986,
		"lat": 41.600693
	},
	"Floyd County, IN": {
		"name": "Floyd County, IN",
		"long": -85.911474,
		"lat": 38.317937
	},
	"Fulton County, IN": {
		"name": "Fulton County, IN",
		"long": -86.265006,
		"lat": 41.050384
	},
	"Gibson County, IN": {
		"name": "Gibson County, IN",
		"long": -87.580566,
		"lat": 38.317413
	},
	"Greene County, IN": {
		"name": "Greene County, IN",
		"long": -87.005245,
		"lat": 39.0486
	},
	"Hamilton County, IN": {
		"name": "Hamilton County, IN",
		"long": -86.020586,
		"lat": 40.04987
	},
	"Hancock County, IN": {
		"name": "Hancock County, IN",
		"long": -85.772904,
		"lat": 39.822604
	},
	"Harrison County, IN": {
		"name": "Harrison County, IN",
		"long": -86.103681,
		"lat": 38.18644
	},
	"Hendricks County, IN": {
		"name": "Hendricks County, IN",
		"long": -86.510287,
		"lat": 39.768749
	},
	"Howard County, IN": {
		"name": "Howard County, IN",
		"long": -86.114118,
		"lat": 40.483537
	},
	"Huntington County, IN": {
		"name": "Huntington County, IN",
		"long": -85.478598,
		"lat": 40.826394
	},
	"Jackson County, IN": {
		"name": "Jackson County, IN",
		"long": -86.042516,
		"lat": 38.911957
	},
	"Jasper County, IN": {
		"name": "Jasper County, IN",
		"long": -87.118814,
		"lat": 41.017688
	},
	"Jefferson County, IN": {
		"name": "Jefferson County, IN",
		"long": -85.44009,
		"lat": 38.783604
	},
	"Jennings County, IN": {
		"name": "Jennings County, IN",
		"long": -85.628111,
		"lat": 38.996234
	},
	"Johnson County, IN": {
		"name": "Johnson County, IN",
		"long": -86.0946,
		"lat": 39.495986
	},
	"Knox County, IN": {
		"name": "Knox County, IN",
		"long": -87.420182,
		"lat": 38.688663
	},
	"Kosciusko County, IN": {
		"name": "Kosciusko County, IN",
		"long": -85.861575,
		"lat": 41.244293
	},
	"LaGrange County, IN": {
		"name": "LaGrange County, IN",
		"long": -85.426302,
		"lat": 41.642468
	},
	"Lake County, IN": {
		"name": "Lake County, IN",
		"long": -87.374337,
		"lat": 41.472239
	},
	"LaPorte County, IN": {
		"name": "LaPorte County, IN",
		"long": -86.744729,
		"lat": 41.549011
	},
	"Lawrence County, IN": {
		"name": "Lawrence County, IN",
		"long": -86.48782,
		"lat": 38.839815
	},
	"Madison County, IN": {
		"name": "Madison County, IN",
		"long": -85.722454,
		"lat": 40.166203
	},
	"Marion County, IN": {
		"name": "Marion County, IN",
		"long": -86.135794,
		"lat": 39.782976
	},
	"Marshall County, IN": {
		"name": "Marshall County, IN",
		"long": -86.269036,
		"lat": 41.325003
	},
	"Miami County, IN": {
		"name": "Miami County, IN",
		"long": -86.044259,
		"lat": 40.772881
	},
	"Monroe County, IN": {
		"name": "Monroe County, IN",
		"long": -86.523325,
		"lat": 39.160751
	},
	"Morgan County, IN": {
		"name": "Morgan County, IN",
		"long": -86.447457,
		"lat": 39.482646
	},
	"Noble County, IN": {
		"name": "Noble County, IN",
		"long": -85.41785,
		"lat": 41.400794
	},
	"Owen County, IN": {
		"name": "Owen County, IN",
		"long": -86.838845,
		"lat": 39.317339
	},
	"Porter County, IN": {
		"name": "Porter County, IN",
		"long": -87.071308,
		"lat": 41.509922
	},
	"Posey County, IN": {
		"name": "Posey County, IN",
		"long": -87.868653,
		"lat": 38.027614
	},
	"Putnam County, IN": {
		"name": "Putnam County, IN",
		"long": -86.853325,
		"lat": 39.665545
	},
	"Randolph County, IN": {
		"name": "Randolph County, IN",
		"long": -85.005004,
		"lat": 40.164414
	},
	"Ripley County, IN": {
		"name": "Ripley County, IN",
		"long": -85.260541,
		"lat": 39.10023
	},
	"St. Joseph County, IN": {
		"name": "St. Joseph County, IN",
		"long": -86.288159,
		"lat": 41.617699
	},
	"Scott County, IN": {
		"name": "Scott County, IN",
		"long": -85.751898,
		"lat": 38.679431
	},
	"Shelby County, IN": {
		"name": "Shelby County, IN",
		"long": -85.792174,
		"lat": 39.524135
	},
	"Switzerland County, IN": {
		"name": "Switzerland County, IN",
		"long": -85.029679,
		"lat": 38.825846
	},
	"Tippecanoe County, IN": {
		"name": "Tippecanoe County, IN",
		"long": -86.893943,
		"lat": 40.38926
	},
	"Union County, IN": {
		"name": "Union County, IN",
		"long": -84.925152,
		"lat": 39.623111
	},
	"Vanderburgh County, IN": {
		"name": "Vanderburgh County, IN",
		"long": -87.586166,
		"lat": 38.02007
	},
	"Vigo County, IN": {
		"name": "Vigo County, IN",
		"long": -87.390375,
		"lat": 39.429143
	},
	"Wabash County, IN": {
		"name": "Wabash County, IN",
		"long": -85.795175,
		"lat": 40.843717
	},
	"Warren County, IN": {
		"name": "Warren County, IN",
		"long": -87.375847,
		"lat": 40.352658
	},
	"Warrick County, IN": {
		"name": "Warrick County, IN",
		"long": -87.272023,
		"lat": 38.097764
	},
	"Wayne County, IN": {
		"name": "Wayne County, IN",
		"long": -85.006735,
		"lat": 39.863091
	},
	"Wells County, IN": {
		"name": "Wells County, IN",
		"long": -85.212974,
		"lat": 40.735273
	},
	"White County, IN": {
		"name": "White County, IN",
		"long": -86.864293,
		"lat": 40.75095
	},
	"Whitley County, IN": {
		"name": "Whitley County, IN",
		"long": -85.501892,
		"lat": 41.136426
	},
	"Appanoose County, IA": {
		"name": "Appanoose County, IA",
		"long": -92.870345,
		"lat": 40.744683
	},
	"Benton County, IA": {
		"name": "Benton County, IA",
		"long": -92.05763,
		"lat": 42.092547
	},
	"Black Hawk County, IA": {
		"name": "Black Hawk County, IA",
		"long": -92.306059,
		"lat": 42.472888
	},
	"Boone County, IA": {
		"name": "Boone County, IA",
		"long": -93.939138,
		"lat": 42.038601
	},
	"Carroll County, IA": {
		"name": "Carroll County, IA",
		"long": -94.867647,
		"lat": 42.039492
	},
	"Cedar County, IA": {
		"name": "Cedar County, IA",
		"long": -91.13219,
		"lat": 41.772355
	},
	"Cerro Gordo County, IA": {
		"name": "Cerro Gordo County, IA",
		"long": -93.251266,
		"lat": 43.075171
	},
	"Chickasaw County, IA": {
		"name": "Chickasaw County, IA",
		"long": -92.31721,
		"lat": 43.059741
	},
	"Clinton County, IA": {
		"name": "Clinton County, IA",
		"long": -90.534243,
		"lat": 41.898073
	},
	"Dallas County, IA": {
		"name": "Dallas County, IA",
		"long": -94.040707,
		"lat": 41.685321
	},
	"Des Moines County, IA": {
		"name": "Des Moines County, IA",
		"long": -91.186925,
		"lat": 40.915339
	},
	"Dubuque County, IA": {
		"name": "Dubuque County, IA",
		"long": -90.878771,
		"lat": 42.463481
	},
	"Jackson County, IA": {
		"name": "Jackson County, IA",
		"long": -90.574597,
		"lat": 42.164281
	},
	"Jasper County, IA": {
		"name": "Jasper County, IA",
		"long": -93.052971,
		"lat": 41.685686
	},
	"Johnson County, IA": {
		"name": "Johnson County, IA",
		"long": -91.588812,
		"lat": 41.668737
	},
	"Jones County, IA": {
		"name": "Jones County, IA",
		"long": -91.116914,
		"lat": 42.125118
	},
	"Linn County, IA": {
		"name": "Linn County, IA",
		"long": -91.597674,
		"lat": 42.077951
	},
	"Marion County, IA": {
		"name": "Marion County, IA",
		"long": -93.093849,
		"lat": 41.331455
	},
	"Osceola County, IA": {
		"name": "Osceola County, IA",
		"long": -95.633788,
		"lat": 43.378542
	},
	"Palo Alto County, IA": {
		"name": "Palo Alto County, IA",
		"long": -94.667297,
		"lat": 43.075854
	},
	"Polk County, IA": {
		"name": "Polk County, IA",
		"long": -93.56972,
		"lat": 41.684281
	},
	"Pottawattamie County, IA": {
		"name": "Pottawattamie County, IA",
		"long": -95.544905,
		"lat": 41.340184
	},
	"Scott County, IA": {
		"name": "Scott County, IA",
		"long": -90.62229,
		"lat": 41.641679
	},
	"Story County, IA": {
		"name": "Story County, IA",
		"long": -93.466093,
		"lat": 42.037538
	},
	"Union County, IA": {
		"name": "Union County, IA",
		"long": -94.245091,
		"lat": 41.02855
	},
	"Wapello County, IA": {
		"name": "Wapello County, IA",
		"long": -92.409482,
		"lat": 41.031263
	},
	"Warren County, IA": {
		"name": "Warren County, IA",
		"long": -93.564366,
		"lat": 41.336769
	},
	"Wayne County, IA": {
		"name": "Wayne County, IA",
		"long": -93.332613,
		"lat": 40.739983
	},
	"Woodbury County, IA": {
		"name": "Woodbury County, IA",
		"long": -96.053296,
		"lat": 42.39322
	},
	"Barton County, KS": {
		"name": "Barton County, KS",
		"long": -98.767837,
		"lat": 38.481239
	},
	"Brown County, KS": {
		"name": "Brown County, KS",
		"long": -95.569905,
		"lat": 39.825931
	},
	"Butler County, KS": {
		"name": "Butler County, KS",
		"long": -96.838762,
		"lat": 37.773681
	},
	"Cherokee County, KS": {
		"name": "Cherokee County, KS",
		"long": -94.845698,
		"lat": 37.169392
	},
	"Cowley County, KS": {
		"name": "Cowley County, KS",
		"long": -96.837247,
		"lat": 37.234507
	},
	"Douglas County, KS": {
		"name": "Douglas County, KS",
		"long": -95.290529,
		"lat": 38.896573
	},
	"Ellis County, KS": {
		"name": "Ellis County, KS",
		"long": -99.317329,
		"lat": 38.914596
	},
	"Finney County, KS": {
		"name": "Finney County, KS",
		"long": -100.739929,
		"lat": 38.049855
	},
	"Ford County, KS": {
		"name": "Ford County, KS",
		"long": -99.884734,
		"lat": 37.688365
	},
	"Franklin County, KS": {
		"name": "Franklin County, KS",
		"long": -95.278962,
		"lat": 38.558019
	},
	"Geary County, KS": {
		"name": "Geary County, KS",
		"long": -96.768038,
		"lat": 39.002155
	},
	"Harvey County, KS": {
		"name": "Harvey County, KS",
		"long": -97.436707,
		"lat": 38.050144
	},
	"Jackson County, KS": {
		"name": "Jackson County, KS",
		"long": -95.794509,
		"lat": 39.410989
	},
	"Johnson County, KS": {
		"name": "Johnson County, KS",
		"long": -94.82233,
		"lat": 38.883907
	},
	"Kearny County, KS": {
		"name": "Kearny County, KS",
		"long": -101.308136,
		"lat": 37.994461
	},
	"Labette County, KS": {
		"name": "Labette County, KS",
		"long": -95.297473,
		"lat": 37.191468
	},
	"Leavenworth County, KS": {
		"name": "Leavenworth County, KS",
		"long": -95.038977,
		"lat": 39.189511
	},
	"Lyon County, KS": {
		"name": "Lyon County, KS",
		"long": -96.161589,
		"lat": 38.455498
	},
	"Miami County, KS": {
		"name": "Miami County, KS",
		"long": -94.832963,
		"lat": 38.566772
	},
	"Osage County, KS": {
		"name": "Osage County, KS",
		"long": -95.727275,
		"lat": 38.649706
	},
	"Pottawatomie County, KS": {
		"name": "Pottawatomie County, KS",
		"long": -96.337113,
		"lat": 39.382187
	},
	"Reno County, KS": {
		"name": "Reno County, KS",
		"long": -98.078346,
		"lat": 37.948185
	},
	"Riley County, KS": {
		"name": "Riley County, KS",
		"long": -96.727489,
		"lat": 39.291211
	},
	"Saline County, KS": {
		"name": "Saline County, KS",
		"long": -97.650153,
		"lat": 38.786327
	},
	"Sedgwick County, KS": {
		"name": "Sedgwick County, KS",
		"long": -97.459451,
		"lat": 37.683807
	},
	"Seward County, KS": {
		"name": "Seward County, KS",
		"long": -100.854741,
		"lat": 37.180585
	},
	"Shawnee County, KS": {
		"name": "Shawnee County, KS",
		"long": -95.755664,
		"lat": 39.041805
	},
	"Sumner County, KS": {
		"name": "Sumner County, KS",
		"long": -97.493349,
		"lat": 37.236663
	},
	"Wilson County, KS": {
		"name": "Wilson County, KS",
		"long": -95.745175,
		"lat": 37.558515
	},
	"Wyandotte County, KS": {
		"name": "Wyandotte County, KS",
		"long": -94.763087,
		"lat": 39.115384
	},
	"Allen County, KY": {
		"name": "Allen County, KY",
		"long": -86.192458,
		"lat": 36.75077
	},
	"Anderson County, KY": {
		"name": "Anderson County, KY",
		"long": -84.986417,
		"lat": 38.005396
	},
	"Barren County, KY": {
		"name": "Barren County, KY",
		"long": -85.92499,
		"lat": 36.963614
	},
	"Bath County, KY": {
		"name": "Bath County, KY",
		"long": -83.737641,
		"lat": 38.152249
	},
	"Boone County, KY": {
		"name": "Boone County, KY",
		"long": -84.731444,
		"lat": 38.974595
	},
	"Bourbon County, KY": {
		"name": "Bourbon County, KY",
		"long": -84.20986,
		"lat": 38.202562
	},
	"Boyd County, KY": {
		"name": "Boyd County, KY",
		"long": -82.681406,
		"lat": 38.360004
	},
	"Boyle County, KY": {
		"name": "Boyle County, KY",
		"long": -84.873016,
		"lat": 37.6182
	},
	"Breckinridge County, KY": {
		"name": "Breckinridge County, KY",
		"long": -86.432829,
		"lat": 37.778109
	},
	"Bullitt County, KY": {
		"name": "Bullitt County, KY",
		"long": -85.703036,
		"lat": 37.969572
	},
	"Butler County, KY": {
		"name": "Butler County, KY",
		"long": -86.682471,
		"lat": 37.207013
	},
	"Campbell County, KY": {
		"name": "Campbell County, KY",
		"long": -84.379583,
		"lat": 38.946981
	},
	"Christian County, KY": {
		"name": "Christian County, KY",
		"long": -87.493554,
		"lat": 36.893388
	},
	"Clark County, KY": {
		"name": "Clark County, KY",
		"long": -84.144974,
		"lat": 37.970133
	},
	"Daviess County, KY": {
		"name": "Daviess County, KY",
		"long": -87.087139,
		"lat": 37.731671
	},
	"Estill County, KY": {
		"name": "Estill County, KY",
		"long": -83.963927,
		"lat": 37.69246
	},
	"Fayette County, KY": {
		"name": "Fayette County, KY",
		"long": -84.458443,
		"lat": 38.040157
	},
	"Franklin County, KY": {
		"name": "Franklin County, KY",
		"long": -84.868786,
		"lat": 38.234919
	},
	"Fulton County, KY": {
		"name": "Fulton County, KY",
		"long": -89.187723,
		"lat": 36.55262
	},
	"Gallatin County, KY": {
		"name": "Gallatin County, KY",
		"long": -84.862114,
		"lat": 38.760184
	},
	"Grant County, KY": {
		"name": "Grant County, KY",
		"long": -84.625946,
		"lat": 38.64921
	},
	"Greenup County, KY": {
		"name": "Greenup County, KY",
		"long": -82.933833,
		"lat": 38.563596
	},
	"Hardin County, KY": {
		"name": "Hardin County, KY",
		"long": -85.963183,
		"lat": 37.695836
	},
	"Harrison County, KY": {
		"name": "Harrison County, KY",
		"long": -84.332796,
		"lat": 38.443489
	},
	"Hart County, KY": {
		"name": "Hart County, KY",
		"long": -85.881995,
		"lat": 37.313856
	},
	"Jackson County, KY": {
		"name": "Jackson County, KY",
		"long": -84.020686,
		"lat": 37.40332
	},
	"Jefferson County, KY": {
		"name": "Jefferson County, KY",
		"long": -85.657624,
		"lat": 38.189533
	},
	"Jessamine County, KY": {
		"name": "Jessamine County, KY",
		"long": -84.58396,
		"lat": 37.873291
	},
	"Johnson County, KY": {
		"name": "Johnson County, KY",
		"long": -82.830639,
		"lat": 37.84926
	},
	"Kenton County, KY": {
		"name": "Kenton County, KY",
		"long": -84.533492,
		"lat": 38.930477
	},
	"Knox County, KY": {
		"name": "Knox County, KY",
		"long": -83.85563,
		"lat": 36.887476
	},
	"Larue County, KY": {
		"name": "Larue County, KY",
		"long": -85.697209,
		"lat": 37.545518
	},
	"Laurel County, KY": {
		"name": "Laurel County, KY",
		"long": -84.119395,
		"lat": 37.113268
	},
	"Leslie County, KY": {
		"name": "Leslie County, KY",
		"long": -83.388616,
		"lat": 37.087846
	},
	"Lincoln County, KY": {
		"name": "Lincoln County, KY",
		"long": -84.658074,
		"lat": 37.457257
	},
	"Logan County, KY": {
		"name": "Logan County, KY",
		"long": -86.881436,
		"lat": 36.859829
	},
	"McCracken County, KY": {
		"name": "McCracken County, KY",
		"long": -88.712378,
		"lat": 37.053688
	},
	"Madison County, KY": {
		"name": "Madison County, KY",
		"long": -84.277008,
		"lat": 37.723528
	},
	"Magoffin County, KY": {
		"name": "Magoffin County, KY",
		"long": -83.069716,
		"lat": 37.698954
	},
	"Marion County, KY": {
		"name": "Marion County, KY",
		"long": -85.269242,
		"lat": 37.552247
	},
	"Meade County, KY": {
		"name": "Meade County, KY",
		"long": -86.200863,
		"lat": 37.967476
	},
	"Mercer County, KY": {
		"name": "Mercer County, KY",
		"long": -84.879695,
		"lat": 37.812085
	},
	"Montgomery County, KY": {
		"name": "Montgomery County, KY",
		"long": -83.912338,
		"lat": 38.038138
	},
	"Nelson County, KY": {
		"name": "Nelson County, KY",
		"long": -85.465955,
		"lat": 37.803188
	},
	"Oldham County, KY": {
		"name": "Oldham County, KY",
		"long": -85.456059,
		"lat": 38.400046
	},
	"Owen County, KY": {
		"name": "Owen County, KY",
		"long": -84.841509,
		"lat": 38.499603
	},
	"Perry County, KY": {
		"name": "Perry County, KY",
		"long": -83.217772,
		"lat": 37.241282
	},
	"Pike County, KY": {
		"name": "Pike County, KY",
		"long": -82.402869,
		"lat": 37.482067
	},
	"Pulaski County, KY": {
		"name": "Pulaski County, KY",
		"long": -84.579986,
		"lat": 37.108312
	},
	"Rockcastle County, KY": {
		"name": "Rockcastle County, KY",
		"long": -84.314419,
		"lat": 37.36122
	},
	"Rowan County, KY": {
		"name": "Rowan County, KY",
		"long": -83.425969,
		"lat": 38.205894
	},
	"Scott County, KY": {
		"name": "Scott County, KY",
		"long": -84.579376,
		"lat": 38.289882
	},
	"Shelby County, KY": {
		"name": "Shelby County, KY",
		"long": -85.22836,
		"lat": 38.239426
	},
	"Simpson County, KY": {
		"name": "Simpson County, KY",
		"long": -86.581464,
		"lat": 36.740863
	},
	"Spencer County, KY": {
		"name": "Spencer County, KY",
		"long": -85.321525,
		"lat": 38.026976
	},
	"Taylor County, KY": {
		"name": "Taylor County, KY",
		"long": -85.326698,
		"lat": 37.365106
	},
	"Todd County, KY": {
		"name": "Todd County, KY",
		"long": -87.183642,
		"lat": 36.840338
	},
	"Trimble County, KY": {
		"name": "Trimble County, KY",
		"long": -85.355171,
		"lat": 38.618193
	},
	"Warren County, KY": {
		"name": "Warren County, KY",
		"long": -86.423579,
		"lat": 36.995634
	},
	"Washington County, KY": {
		"name": "Washington County, KY",
		"long": -85.175416,
		"lat": 37.754209
	},
	"Wayne County, KY": {
		"name": "Wayne County, KY",
		"long": -84.83044,
		"lat": 36.802011
	},
	"Webster County, KY": {
		"name": "Webster County, KY",
		"long": -87.685095,
		"lat": 37.520021
	},
	"Whitley County, KY": {
		"name": "Whitley County, KY",
		"long": -84.14455,
		"lat": 36.758021
	},
	"Woodford County, KY": {
		"name": "Woodford County, KY",
		"long": -84.748147,
		"lat": 38.042789
	},
	"Acadia County, LA": {
		"name": "Acadia County, LA",
		"long": -92.411037,
		"lat": 30.291497
	},
	"Ascension County, LA": {
		"name": "Ascension County, LA",
		"long": -90.910023,
		"lat": 30.202946
	},
	"Assumption County, LA": {
		"name": "Assumption County, LA",
		"long": -91.050528,
		"lat": 29.899884
	},
	"Avoyelles County, LA": {
		"name": "Avoyelles County, LA",
		"long": -91.993798,
		"lat": 31.085094
	},
	"Beauregard County, LA": {
		"name": "Beauregard County, LA",
		"long": -93.340253,
		"lat": 30.645018
	},
	"Bossier County, LA": {
		"name": "Bossier County, LA",
		"long": -93.617977,
		"lat": 32.696202
	},
	"Caddo County, LA": {
		"name": "Caddo County, LA",
		"long": -93.882423,
		"lat": 32.577195
	},
	"Calcasieu County, LA": {
		"name": "Calcasieu County, LA",
		"long": -93.358015,
		"lat": 30.229559
	},
	"De Soto County, LA": {
		"name": "De Soto County, LA",
		"long": -93.740797,
		"lat": 32.059248
	},
	"East Baton Rouge County, LA": {
		"name": "East Baton Rouge County, LA",
		"long": -91.093174,
		"lat": 30.544002
	},
	"East Carroll County, LA": {
		"name": "East Carroll County, LA",
		"long": -91.234141,
		"lat": 32.73017
	},
	"East Feliciana County, LA": {
		"name": "East Feliciana County, LA",
		"long": -91.043434,
		"lat": 30.839784
	},
	"Evangeline County, LA": {
		"name": "Evangeline County, LA",
		"long": -92.404086,
		"lat": 30.720693
	},
	"Grant County, LA": {
		"name": "Grant County, LA",
		"long": -92.561716,
		"lat": 31.597787
	},
	"Iberia County, LA": {
		"name": "Iberia County, LA",
		"long": -91.842706,
		"lat": 29.606013
	},
	"Iberville County, LA": {
		"name": "Iberville County, LA",
		"long": -91.36315,
		"lat": 30.288394
	},
	"Jefferson County, LA": {
		"name": "Jefferson County, LA",
		"long": -90.036231,
		"lat": 29.5033
	},
	"Jefferson Davis County, LA": {
		"name": "Jefferson Davis County, LA",
		"long": -92.816221,
		"lat": 30.269529
	},
	"Lafayette County, LA": {
		"name": "Lafayette County, LA",
		"long": -92.06417,
		"lat": 30.206507
	},
	"Lafourche County, LA": {
		"name": "Lafourche County, LA",
		"long": -90.394849,
		"lat": 29.491993
	},
	"Livingston County, LA": {
		"name": "Livingston County, LA",
		"long": -90.727474,
		"lat": 30.440419
	},
	"Morehouse County, LA": {
		"name": "Morehouse County, LA",
		"long": -91.800399,
		"lat": 32.820008
	},
	"Natchitoches County, LA": {
		"name": "Natchitoches County, LA",
		"long": -93.086106,
		"lat": 31.734982
	},
	"Orleans County, LA": {
		"name": "Orleans County, LA",
		"long": -89.939007,
		"lat": 30.068636
	},
	"Ouachita County, LA": {
		"name": "Ouachita County, LA",
		"long": -92.154798,
		"lat": 32.477495
	},
	"Plaquemines County, LA": {
		"name": "Plaquemines County, LA",
		"long": -89.298489,
		"lat": 29.402337
	},
	"Rapides County, LA": {
		"name": "Rapides County, LA",
		"long": -92.535953,
		"lat": 31.193204
	},
	"Richland County, LA": {
		"name": "Richland County, LA",
		"long": -91.758375,
		"lat": 32.418121
	},
	"St. Bernard County, LA": {
		"name": "St. Bernard County, LA",
		"long": -89.263494,
		"lat": 29.91811
	},
	"St. Charles County, LA": {
		"name": "St. Charles County, LA",
		"long": -90.359314,
		"lat": 29.913833
	},
	"St. Helena County, LA": {
		"name": "St. Helena County, LA",
		"long": -90.70935,
		"lat": 30.821423
	},
	"St. John the Baptist County, LA": {
		"name": "St. John the Baptist County, LA",
		"long": -90.504677,
		"lat": 30.117471
	},
	"St. Landry County, LA": {
		"name": "St. Landry County, LA",
		"long": -91.989275,
		"lat": 30.583441
	},
	"St. Martin County, LA": {
		"name": "St. Martin County, LA",
		"long": -91.611481,
		"lat": 30.121433
	},
	"St. Mary County, LA": {
		"name": "St. Mary County, LA",
		"long": -91.463804,
		"lat": 29.629349
	},
	"St. Tammany County, LA": {
		"name": "St. Tammany County, LA",
		"long": -89.951962,
		"lat": 30.410022
	},
	"Tangipahoa County, LA": {
		"name": "Tangipahoa County, LA",
		"long": -90.406633,
		"lat": 30.621581
	},
	"Terrebonne County, LA": {
		"name": "Terrebonne County, LA",
		"long": -90.844191,
		"lat": 29.333266
	},
	"Union County, LA": {
		"name": "Union County, LA",
		"long": -92.37565,
		"lat": 32.829349
	},
	"Vermilion County, LA": {
		"name": "Vermilion County, LA",
		"long": -92.29009,
		"lat": 29.786872
	},
	"Vernon County, LA": {
		"name": "Vernon County, LA",
		"long": -93.18152,
		"lat": 31.110563
	},
	"Washington County, LA": {
		"name": "Washington County, LA",
		"long": -90.046253,
		"lat": 30.852144
	},
	"Webster County, LA": {
		"name": "Webster County, LA",
		"long": -93.339825,
		"lat": 32.732152
	},
	"West Baton Rouge County, LA": {
		"name": "West Baton Rouge County, LA",
		"long": -91.309808,
		"lat": 30.464052
	},
	"West Feliciana County, LA": {
		"name": "West Feliciana County, LA",
		"long": -91.421008,
		"lat": 30.872701
	},
	"Androscoggin County, ME": {
		"name": "Androscoggin County, ME",
		"long": -70.207435,
		"lat": 44.167681
	},
	"Aroostook County, ME": {
		"name": "Aroostook County, ME",
		"long": -68.64941,
		"lat": 46.727057
	},
	"Cumberland County, ME": {
		"name": "Cumberland County, ME",
		"long": -70.330375,
		"lat": 43.808348
	},
	"Franklin County, ME": {
		"name": "Franklin County, ME",
		"long": -70.444727,
		"lat": 44.973012
	},
	"Kennebec County, ME": {
		"name": "Kennebec County, ME",
		"long": -69.765764,
		"lat": 44.417012
	},
	"Knox County, ME": {
		"name": "Knox County, ME",
		"long": -69.038515,
		"lat": 44.042045
	},
	"Lincoln County, ME": {
		"name": "Lincoln County, ME",
		"long": -69.514029,
		"lat": 43.994265
	},
	"Oxford County, ME": {
		"name": "Oxford County, ME",
		"long": -70.734688,
		"lat": 44.494585
	},
	"Penobscot County, ME": {
		"name": "Penobscot County, ME",
		"long": -68.657487,
		"lat": 45.390602
	},
	"Sagadahoc County, ME": {
		"name": "Sagadahoc County, ME",
		"long": -69.843994,
		"lat": 43.916694
	},
	"Somerset County, ME": {
		"name": "Somerset County, ME",
		"long": -69.97604,
		"lat": 45.507482
	},
	"York County, ME": {
		"name": "York County, ME",
		"long": -70.670402,
		"lat": 43.427239
	},
	"Allegany County, MD": {
		"name": "Allegany County, MD",
		"long": -78.703108,
		"lat": 39.612309
	},
	"Anne Arundel County, MD": {
		"name": "Anne Arundel County, MD",
		"long": -76.560511,
		"lat": 38.993374
	},
	"Baltimore County, MD": {
		"name": "Baltimore County, MD",
		"long": -76.610516,
		"lat": 39.300214
	},
	"Calvert County, MD": {
		"name": "Calvert County, MD",
		"long": -76.525864,
		"lat": 38.521358
	},
	"Caroline County, MD": {
		"name": "Caroline County, MD",
		"long": -75.831631,
		"lat": 38.871531
	},
	"Carroll County, MD": {
		"name": "Carroll County, MD",
		"long": -77.015512,
		"lat": 39.563189
	},
	"Cecil County, MD": {
		"name": "Cecil County, MD",
		"long": -75.941584,
		"lat": 39.562352
	},
	"Charles County, MD": {
		"name": "Charles County, MD",
		"long": -77.015427,
		"lat": 38.472853
	},
	"Frederick County, MD": {
		"name": "Frederick County, MD",
		"long": -77.397627,
		"lat": 39.470427
	},
	"Harford County, MD": {
		"name": "Harford County, MD",
		"long": -76.299789,
		"lat": 39.537429
	},
	"Howard County, MD": {
		"name": "Howard County, MD",
		"long": -76.924406,
		"lat": 39.252264
	},
	"Kent County, MD": {
		"name": "Kent County, MD",
		"long": -76.1242,
		"lat": 39.239177
	},
	"Montgomery County, MD": {
		"name": "Montgomery County, MD",
		"long": -77.203063,
		"lat": 39.137382
	},
	"Prince George's County, MD": {
		"name": "Prince George's County, MD",
		"long": -76.847272,
		"lat": 38.82588
	},
	"Queen Anne's County, MD": {
		"name": "Queen Anne's County, MD",
		"long": -76.082405,
		"lat": 39.040693
	},
	"St. Mary's County, MD": {
		"name": "St. Mary's County, MD",
		"long": -76.534271,
		"lat": 38.222666
	},
	"Somerset County, MD": {
		"name": "Somerset County, MD",
		"long": -75.853323,
		"lat": 38.07445
	},
	"Washington County, MD": {
		"name": "Washington County, MD",
		"long": -77.814671,
		"lat": 39.603621
	},
	"Wicomico County, MD": {
		"name": "Wicomico County, MD",
		"long": -75.632206,
		"lat": 38.367389
	},
	"Barnstable County, MA": {
		"name": "Barnstable County, MA",
		"long": -70.211083,
		"lat": 41.798819
	},
	"Berkshire County, MA": {
		"name": "Berkshire County, MA",
		"long": -73.213948,
		"lat": 42.375314
	},
	"Bristol County, MA": {
		"name": "Bristol County, MA",
		"long": -71.087062,
		"lat": 41.748576
	},
	"Essex County, MA": {
		"name": "Essex County, MA",
		"long": -70.865107,
		"lat": 42.642711
	},
	"Franklin County, MA": {
		"name": "Franklin County, MA",
		"long": -72.591655,
		"lat": 42.583791
	},
	"Hampden County, MA": {
		"name": "Hampden County, MA",
		"long": -72.635648,
		"lat": 42.136198
	},
	"Hampshire County, MA": {
		"name": "Hampshire County, MA",
		"long": -72.663694,
		"lat": 42.339459
	},
	"Middlesex County, MA": {
		"name": "Middlesex County, MA",
		"long": -71.396507,
		"lat": 42.479477
	},
	"Norfolk County, MA": {
		"name": "Norfolk County, MA",
		"long": -71.179875,
		"lat": 42.169703
	},
	"Plymouth County, MA": {
		"name": "Plymouth County, MA",
		"long": -70.741942,
		"lat": 41.987196
	},
	"Suffolk County, MA": {
		"name": "Suffolk County, MA",
		"long": -71.020173,
		"lat": 42.33196
	},
	"Worcester County, MA": {
		"name": "Worcester County, MA",
		"long": -71.940282,
		"lat": 42.311693
	},
	"Allegan County, MI": {
		"name": "Allegan County, MI",
		"long": -86.634745,
		"lat": 42.595788
	},
	"Barry County, MI": {
		"name": "Barry County, MI",
		"long": -85.31455,
		"lat": 42.582811
	},
	"Bay County, MI": {
		"name": "Bay County, MI",
		"long": -83.978701,
		"lat": 43.699711
	},
	"Berrien County, MI": {
		"name": "Berrien County, MI",
		"long": -86.741822,
		"lat": 41.792639
	},
	"Calhoun County, MI": {
		"name": "Calhoun County, MI",
		"long": -85.012385,
		"lat": 42.24299
	},
	"Cass County, MI": {
		"name": "Cass County, MI",
		"long": -85.999457,
		"lat": 41.91624
	},
	"Cheboygan County, MI": {
		"name": "Cheboygan County, MI",
		"long": -84.495271,
		"lat": 45.47612
	},
	"Clinton County, MI": {
		"name": "Clinton County, MI",
		"long": -84.591695,
		"lat": 42.950455
	},
	"Eaton County, MI": {
		"name": "Eaton County, MI",
		"long": -84.846524,
		"lat": 42.589614
	},
	"Genesee County, MI": {
		"name": "Genesee County, MI",
		"long": -83.706372,
		"lat": 43.021077
	},
	"Grand Traverse County, MI": {
		"name": "Grand Traverse County, MI",
		"long": -85.553848,
		"lat": 44.718688
	},
	"Hillsdale County, MI": {
		"name": "Hillsdale County, MI",
		"long": -84.642409,
		"lat": 41.864475
	},
	"Ingham County, MI": {
		"name": "Ingham County, MI",
		"long": -84.373811,
		"lat": 42.603534
	},
	"Ionia County, MI": {
		"name": "Ionia County, MI",
		"long": -85.073766,
		"lat": 42.94465
	},
	"Isabella County, MI": {
		"name": "Isabella County, MI",
		"long": -84.839425,
		"lat": 43.645233
	},
	"Jackson County, MI": {
		"name": "Jackson County, MI",
		"long": -84.420868,
		"lat": 42.248474
	},
	"Kalamazoo County, MI": {
		"name": "Kalamazoo County, MI",
		"long": -85.532854,
		"lat": 42.246266
	},
	"Kent County, MI": {
		"name": "Kent County, MI",
		"long": -85.547446,
		"lat": 43.032497
	},
	"Lake County, MI": {
		"name": "Lake County, MI",
		"long": -85.8114,
		"lat": 43.995187
	},
	"Lapeer County, MI": {
		"name": "Lapeer County, MI",
		"long": -83.224325,
		"lat": 43.088633
	},
	"Leelanau County, MI": {
		"name": "Leelanau County, MI",
		"long": -86.051574,
		"lat": 45.146182
	},
	"Lenawee County, MI": {
		"name": "Lenawee County, MI",
		"long": -84.066853,
		"lat": 41.895915
	},
	"Livingston County, MI": {
		"name": "Livingston County, MI",
		"long": -83.911718,
		"lat": 42.602532
	},
	"Macomb County, MI": {
		"name": "Macomb County, MI",
		"long": -82.910869,
		"lat": 42.671467
	},
	"Menominee County, MI": {
		"name": "Menominee County, MI",
		"long": -87.509892,
		"lat": 45.544174
	},
	"Midland County, MI": {
		"name": "Midland County, MI",
		"long": -84.37922,
		"lat": 43.648378
	},
	"Missaukee County, MI": {
		"name": "Missaukee County, MI",
		"long": -85.085471,
		"lat": 44.325424
	},
	"Monroe County, MI": {
		"name": "Monroe County, MI",
		"long": -83.487106,
		"lat": 41.916097
	},
	"Montcalm County, MI": {
		"name": "Montcalm County, MI",
		"long": -85.149468,
		"lat": 43.312782
	},
	"Muskegon County, MI": {
		"name": "Muskegon County, MI",
		"long": -86.751892,
		"lat": 43.289258
	},
	"Newaygo County, MI": {
		"name": "Newaygo County, MI",
		"long": -85.791423,
		"lat": 43.562709
	},
	"Oakland County, MI": {
		"name": "Oakland County, MI",
		"long": -83.38421,
		"lat": 42.660452
	},
	"Oceana County, MI": {
		"name": "Oceana County, MI",
		"long": -86.807575,
		"lat": 43.647255
	},
	"Otsego County, MI": {
		"name": "Otsego County, MI",
		"long": -84.576597,
		"lat": 45.021794
	},
	"Ottawa County, MI": {
		"name": "Ottawa County, MI",
		"long": -86.655342,
		"lat": 42.942346
	},
	"Saginaw County, MI": {
		"name": "Saginaw County, MI",
		"long": -84.05541,
		"lat": 43.328267
	},
	"St. Clair County, MI": {
		"name": "St. Clair County, MI",
		"long": -82.668914,
		"lat": 42.928804
	},
	"St. Joseph County, MI": {
		"name": "St. Joseph County, MI",
		"long": -85.52287,
		"lat": 41.911488
	},
	"Schoolcraft County, MI": {
		"name": "Schoolcraft County, MI",
		"long": -86.199352,
		"lat": 46.020758
	},
	"Shiawassee County, MI": {
		"name": "Shiawassee County, MI",
		"long": -84.146352,
		"lat": 42.951545
	},
	"Van Buren County, MI": {
		"name": "Van Buren County, MI",
		"long": -86.305697,
		"lat": 42.283986
	},
	"Washtenaw County, MI": {
		"name": "Washtenaw County, MI",
		"long": -83.844634,
		"lat": 42.252327
	},
	"Wayne County, MI": {
		"name": "Wayne County, MI",
		"long": -83.261953,
		"lat": 42.284664
	},
	"Wexford County, MI": {
		"name": "Wexford County, MI",
		"long": -85.570046,
		"lat": 44.331375
	},
	"Anoka County, MN": {
		"name": "Anoka County, MN",
		"long": -93.242723,
		"lat": 45.27411
	},
	"Beltrami County, MN": {
		"name": "Beltrami County, MN",
		"long": -94.986698,
		"lat": 47.878825
	},
	"Benton County, MN": {
		"name": "Benton County, MN",
		"long": -94.00144,
		"lat": 45.701227
	},
	"Blue Earth County, MN": {
		"name": "Blue Earth County, MN",
		"long": -94.064071,
		"lat": 44.038225
	},
	"Carlton County, MN": {
		"name": "Carlton County, MN",
		"long": -92.671044,
		"lat": 46.603818
	},
	"Carver County, MN": {
		"name": "Carver County, MN",
		"long": -93.800575,
		"lat": 44.821381
	},
	"Chisago County, MN": {
		"name": "Chisago County, MN",
		"long": -92.903849,
		"lat": 45.505444
	},
	"Clay County, MN": {
		"name": "Clay County, MN",
		"long": -96.494901,
		"lat": 46.898377
	},
	"Clearwater County, MN": {
		"name": "Clearwater County, MN",
		"long": -95.371117,
		"lat": 47.575873
	},
	"Crow Wing County, MN": {
		"name": "Crow Wing County, MN",
		"long": -94.071213,
		"lat": 46.491114
	},
	"Dakota County, MN": {
		"name": "Dakota County, MN",
		"long": -93.062481,
		"lat": 44.670893
	},
	"Douglas County, MN": {
		"name": "Douglas County, MN",
		"long": -95.46061,
		"lat": 45.936429
	},
	"Goodhue County, MN": {
		"name": "Goodhue County, MN",
		"long": -92.716,
		"lat": 44.406178
	},
	"Hennepin County, MN": {
		"name": "Hennepin County, MN",
		"long": -93.475185,
		"lat": 45.006064
	},
	"Isanti County, MN": {
		"name": "Isanti County, MN",
		"long": -93.296339,
		"lat": 45.562431
	},
	"Itasca County, MN": {
		"name": "Itasca County, MN",
		"long": -93.613128,
		"lat": 47.490843
	},
	"Kandiyohi County, MN": {
		"name": "Kandiyohi County, MN",
		"long": -95.004981,
		"lat": 45.152714
	},
	"Lyon County, MN": {
		"name": "Lyon County, MN",
		"long": -95.847268,
		"lat": 44.409195
	},
	"McLeod County, MN": {
		"name": "McLeod County, MN",
		"long": -94.27232,
		"lat": 44.821644
	},
	"Mower County, MN": {
		"name": "Mower County, MN",
		"long": -92.759514,
		"lat": 43.666249
	},
	"Nicollet County, MN": {
		"name": "Nicollet County, MN",
		"long": -94.245685,
		"lat": 44.35882
	},
	"Norman County, MN": {
		"name": "Norman County, MN",
		"long": -96.463807,
		"lat": 47.32947
	},
	"Olmsted County, MN": {
		"name": "Olmsted County, MN",
		"long": -92.406722,
		"lat": 44.00343
	},
	"Otter Tail County, MN": {
		"name": "Otter Tail County, MN",
		"long": -95.714578,
		"lat": 46.405725
	},
	"Polk County, MN": {
		"name": "Polk County, MN",
		"long": -96.400027,
		"lat": 47.774254
	},
	"Ramsey County, MN": {
		"name": "Ramsey County, MN",
		"long": -93.100141,
		"lat": 45.01525
	},
	"Redwood County, MN": {
		"name": "Redwood County, MN",
		"long": -95.254242,
		"lat": 44.403536
	},
	"Rice County, MN": {
		"name": "Rice County, MN",
		"long": -93.298503,
		"lat": 44.350943
	},
	"St. Louis County, MN": {
		"name": "St. Louis County, MN",
		"long": -92.463645,
		"lat": 47.583852
	},
	"Scott County, MN": {
		"name": "Scott County, MN",
		"long": -93.534553,
		"lat": 44.651932
	},
	"Sherburne County, MN": {
		"name": "Sherburne County, MN",
		"long": -93.775092,
		"lat": 45.443171
	},
	"Sibley County, MN": {
		"name": "Sibley County, MN",
		"long": -94.230123,
		"lat": 44.575734
	},
	"Stearns County, MN": {
		"name": "Stearns County, MN",
		"long": -94.610482,
		"lat": 45.555235
	},
	"Steele County, MN": {
		"name": "Steele County, MN",
		"long": -93.220453,
		"lat": 44.015261
	},
	"Washington County, MN": {
		"name": "Washington County, MN",
		"long": -92.890117,
		"lat": 45.037929
	},
	"Winona County, MN": {
		"name": "Winona County, MN",
		"long": -91.776708,
		"lat": 43.982268
	},
	"Wright County, MN": {
		"name": "Wright County, MN",
		"long": -93.966397,
		"lat": 45.175091
	},
	"Amite County, MS": {
		"name": "Amite County, MS",
		"long": -90.795542,
		"lat": 31.203933
	},
	"Bolivar County, MS": {
		"name": "Bolivar County, MS",
		"long": -90.884476,
		"lat": 33.799278
	},
	"Chickasaw County, MS": {
		"name": "Chickasaw County, MS",
		"long": -88.945808,
		"lat": 33.921654
	},
	"Copiah County, MS": {
		"name": "Copiah County, MS",
		"long": -90.448758,
		"lat": 31.866915
	},
	"Covington County, MS": {
		"name": "Covington County, MS",
		"long": -89.548897,
		"lat": 31.633331
	},
	"DeSoto County, MS": {
		"name": "DeSoto County, MS",
		"long": -89.99324,
		"lat": 34.874266
	},
	"Forrest County, MS": {
		"name": "Forrest County, MS",
		"long": -89.259447,
		"lat": 31.18858
	},
	"Hancock County, MS": {
		"name": "Hancock County, MS",
		"long": -89.47985,
		"lat": 30.391437
	},
	"Harrison County, MS": {
		"name": "Harrison County, MS",
		"long": -89.083376,
		"lat": 30.416536
	},
	"Hinds County, MS": {
		"name": "Hinds County, MS",
		"long": -90.4659,
		"lat": 32.267924
	},
	"Itawamba County, MS": {
		"name": "Itawamba County, MS",
		"long": -88.363127,
		"lat": 34.281075
	},
	"Jackson County, MS": {
		"name": "Jackson County, MS",
		"long": -88.619991,
		"lat": 30.458491
	},
	"Jasper County, MS": {
		"name": "Jasper County, MS",
		"long": -89.11943,
		"lat": 32.016989
	},
	"Jefferson Davis County, MS": {
		"name": "Jefferson Davis County, MS",
		"long": -89.826626,
		"lat": 31.564734
	},
	"Jones County, MS": {
		"name": "Jones County, MS",
		"long": -89.167262,
		"lat": 31.621044
	},
	"Lafayette County, MS": {
		"name": "Lafayette County, MS",
		"long": -89.485903,
		"lat": 34.349298
	},
	"Lamar County, MS": {
		"name": "Lamar County, MS",
		"long": -89.514952,
		"lat": 31.197135
	},
	"Lauderdale County, MS": {
		"name": "Lauderdale County, MS",
		"long": -88.660449,
		"lat": 32.403998
	},
	"Lee County, MS": {
		"name": "Lee County, MS",
		"long": -88.680887,
		"lat": 34.288965
	},
	"Leflore County, MS": {
		"name": "Leflore County, MS",
		"long": -90.294934,
		"lat": 33.54979
	},
	"Lincoln County, MS": {
		"name": "Lincoln County, MS",
		"long": -90.453566,
		"lat": 31.535216
	},
	"Lowndes County, MS": {
		"name": "Lowndes County, MS",
		"long": -88.439723,
		"lat": 33.471424
	},
	"Madison County, MS": {
		"name": "Madison County, MS",
		"long": -90.03416,
		"lat": 32.63437
	},
	"Marion County, MS": {
		"name": "Marion County, MS",
		"long": -89.821736,
		"lat": 31.230126
	},
	"Marshall County, MS": {
		"name": "Marshall County, MS",
		"long": -89.504231,
		"lat": 34.76619
	},
	"Monroe County, MS": {
		"name": "Monroe County, MS",
		"long": -88.485038,
		"lat": 33.89003
	},
	"Neshoba County, MS": {
		"name": "Neshoba County, MS",
		"long": -89.119274,
		"lat": 32.752518
	},
	"Newton County, MS": {
		"name": "Newton County, MS",
		"long": -89.118412,
		"lat": 32.40197
	},
	"Oktibbeha County, MS": {
		"name": "Oktibbeha County, MS",
		"long": -88.876151,
		"lat": 33.422313
	},
	"Panola County, MS": {
		"name": "Panola County, MS",
		"long": -89.963065,
		"lat": 34.365205
	},
	"Pearl River County, MS": {
		"name": "Pearl River County, MS",
		"long": -89.586832,
		"lat": 30.773791
	},
	"Perry County, MS": {
		"name": "Perry County, MS",
		"long": -88.988755,
		"lat": 31.169307
	},
	"Pike County, MS": {
		"name": "Pike County, MS",
		"long": -90.397725,
		"lat": 31.177517
	},
	"Pontotoc County, MS": {
		"name": "Pontotoc County, MS",
		"long": -89.037239,
		"lat": 34.227081
	},
	"Rankin County, MS": {
		"name": "Rankin County, MS",
		"long": -89.946552,
		"lat": 32.262057
	},
	"Scott County, MS": {
		"name": "Scott County, MS",
		"long": -89.533209,
		"lat": 32.427127
	},
	"Simpson County, MS": {
		"name": "Simpson County, MS",
		"long": -89.917707,
		"lat": 31.902503
	},
	"Stone County, MS": {
		"name": "Stone County, MS",
		"long": -89.112297,
		"lat": 30.790184
	},
	"Sunflower County, MS": {
		"name": "Sunflower County, MS",
		"long": -90.59509,
		"lat": 33.605529
	},
	"Tate County, MS": {
		"name": "Tate County, MS",
		"long": -89.943105,
		"lat": 34.649553
	},
	"Tippah County, MS": {
		"name": "Tippah County, MS",
		"long": -88.918819,
		"lat": 34.763618
	},
	"Tishomingo County, MS": {
		"name": "Tishomingo County, MS",
		"long": -88.236067,
		"lat": 34.737699
	},
	"Tunica County, MS": {
		"name": "Tunica County, MS",
		"long": -90.37177,
		"lat": 34.652201
	},
	"Union County, MS": {
		"name": "Union County, MS",
		"long": -89.0023,
		"lat": 34.489101
	},
	"Walthall County, MS": {
		"name": "Walthall County, MS",
		"long": -90.103431,
		"lat": 31.164492
	},
	"Warren County, MS": {
		"name": "Warren County, MS",
		"long": -90.851791,
		"lat": 32.357005
	},
	"Washington County, MS": {
		"name": "Washington County, MS",
		"long": -90.94443,
		"lat": 33.273131
	},
	"Wayne County, MS": {
		"name": "Wayne County, MS",
		"long": -88.682057,
		"lat": 31.64476
	},
	"Winston County, MS": {
		"name": "Winston County, MS",
		"long": -89.037391,
		"lat": 33.078724
	},
	"Yalobusha County, MS": {
		"name": "Yalobusha County, MS",
		"long": -89.703793,
		"lat": 34.030669
	},
	"Andrew County, MO": {
		"name": "Andrew County, MO",
		"long": -94.803551,
		"lat": 39.988863
	},
	"Audrain County, MO": {
		"name": "Audrain County, MO",
		"long": -91.843415,
		"lat": 39.21448
	},
	"Barry County, MO": {
		"name": "Barry County, MO",
		"long": -93.834326,
		"lat": 36.699378
	},
	"Benton County, MO": {
		"name": "Benton County, MO",
		"long": -93.287942,
		"lat": 38.301036
	},
	"Bollinger County, MO": {
		"name": "Bollinger County, MO",
		"long": -90.024601,
		"lat": 37.318349
	},
	"Boone County, MO": {
		"name": "Boone County, MO",
		"long": -92.310779,
		"lat": 38.989657
	},
	"Buchanan County, MO": {
		"name": "Buchanan County, MO",
		"long": -94.808173,
		"lat": 39.66037
	},
	"Butler County, MO": {
		"name": "Butler County, MO",
		"long": -90.40313,
		"lat": 36.71518
	},
	"Callaway County, MO": {
		"name": "Callaway County, MO",
		"long": -91.924089,
		"lat": 38.835966
	},
	"Camden County, MO": {
		"name": "Camden County, MO",
		"long": -92.765138,
		"lat": 38.031995
	},
	"Cape Girardeau County, MO": {
		"name": "Cape Girardeau County, MO",
		"long": -89.684908,
		"lat": 37.383882
	},
	"Cass County, MO": {
		"name": "Cass County, MO",
		"long": -94.354242,
		"lat": 38.647159
	},
	"Christian County, MO": {
		"name": "Christian County, MO",
		"long": -93.187614,
		"lat": 36.969739
	},
	"Clay County, MO": {
		"name": "Clay County, MO",
		"long": -94.421502,
		"lat": 39.315551
	},
	"Cole County, MO": {
		"name": "Cole County, MO",
		"long": -92.271404,
		"lat": 38.506847
	},
	"Crawford County, MO": {
		"name": "Crawford County, MO",
		"long": -91.313933,
		"lat": 37.966561
	},
	"Dallas County, MO": {
		"name": "Dallas County, MO",
		"long": -93.033812,
		"lat": 37.683583
	},
	"Daviess County, MO": {
		"name": "Daviess County, MO",
		"long": -93.970053,
		"lat": 39.962839
	},
	"DeKalb County, MO": {
		"name": "DeKalb County, MO",
		"long": -94.40719,
		"lat": 39.894665
	},
	"Franklin County, MO": {
		"name": "Franklin County, MO",
		"long": -91.07341,
		"lat": 38.408313
	},
	"Greene County, MO": {
		"name": "Greene County, MO",
		"long": -93.340641,
		"lat": 37.258196
	},
	"Henry County, MO": {
		"name": "Henry County, MO",
		"long": -93.792628,
		"lat": 38.386491
	},
	"Jackson County, MO": {
		"name": "Jackson County, MO",
		"long": -94.342507,
		"lat": 39.007233
	},
	"Jasper County, MO": {
		"name": "Jasper County, MO",
		"long": -94.338869,
		"lat": 37.200865
	},
	"Jefferson County, MO": {
		"name": "Jefferson County, MO",
		"long": -90.543138,
		"lat": 38.257414
	},
	"Johnson County, MO": {
		"name": "Johnson County, MO",
		"long": -93.805999,
		"lat": 38.74588
	},
	"Lafayette County, MO": {
		"name": "Lafayette County, MO",
		"long": -93.802639,
		"lat": 39.068705
	},
	"Lawrence County, MO": {
		"name": "Lawrence County, MO",
		"long": -93.833262,
		"lat": 37.106135
	},
	"Lincoln County, MO": {
		"name": "Lincoln County, MO",
		"long": -90.957771,
		"lat": 39.058568
	},
	"McDonald County, MO": {
		"name": "McDonald County, MO",
		"long": -94.343956,
		"lat": 36.630218
	},
	"Maries County, MO": {
		"name": "Maries County, MO",
		"long": -91.923601,
		"lat": 38.162615
	},
	"Miller County, MO": {
		"name": "Miller County, MO",
		"long": -92.429871,
		"lat": 38.21672
	},
	"New Madrid County, MO": {
		"name": "New Madrid County, MO",
		"long": -89.655949,
		"lat": 36.594261
	},
	"Newton County, MO": {
		"name": "Newton County, MO",
		"long": -94.334741,
		"lat": 36.908017
	},
	"Pemiscot County, MO": {
		"name": "Pemiscot County, MO",
		"long": -89.785942,
		"lat": 36.209916
	},
	"Pettis County, MO": {
		"name": "Pettis County, MO",
		"long": -93.285207,
		"lat": 38.727367
	},
	"Phelps County, MO": {
		"name": "Phelps County, MO",
		"long": -91.790349,
		"lat": 37.866326
	},
	"Platte County, MO": {
		"name": "Platte County, MO",
		"long": -94.761472,
		"lat": 39.378696
	},
	"Polk County, MO": {
		"name": "Polk County, MO",
		"long": -93.400817,
		"lat": 37.616761
	},
	"Pulaski County, MO": {
		"name": "Pulaski County, MO",
		"long": -92.207022,
		"lat": 37.824835
	},
	"St. Charles County, MO": {
		"name": "St. Charles County, MO",
		"long": -90.674915,
		"lat": 38.781102
	},
	"Ste. Genevieve County, MO": {
		"name": "Ste. Genevieve County, MO",
		"long": -90.18117,
		"lat": 37.89018
	},
	"St. Francois County, MO": {
		"name": "St. Francois County, MO",
		"long": -90.473868,
		"lat": 37.810707
	},
	"St. Louis County, MO": {
		"name": "St. Louis County, MO",
		"long": -90.244582,
		"lat": 38.635699
	},
	"Scott County, MO": {
		"name": "Scott County, MO",
		"long": -89.568098,
		"lat": 37.047793
	},
	"Stone County, MO": {
		"name": "Stone County, MO",
		"long": -93.467782,
		"lat": 36.747857
	},
	"Taney County, MO": {
		"name": "Taney County, MO",
		"long": -93.042819,
		"lat": 36.649827
	},
	"Texas County, MO": {
		"name": "Texas County, MO",
		"long": -91.964478,
		"lat": 37.314257
	},
	"Warren County, MO": {
		"name": "Warren County, MO",
		"long": -91.159307,
		"lat": 38.761902
	},
	"Washington County, MO": {
		"name": "Washington County, MO",
		"long": -90.897056,
		"lat": 37.942315
	},
	"Webster County, MO": {
		"name": "Webster County, MO",
		"long": -92.87608,
		"lat": 37.280804
	},
	"Wright County, MO": {
		"name": "Wright County, MO",
		"long": -92.48001,
		"lat": 37.267636
	},
	"Big Horn County, MT": {
		"name": "Big Horn County, MT",
		"long": -107.518163,
		"lat": 45.407869
	},
	"Cascade County, MT": {
		"name": "Cascade County, MT",
		"long": -111.350571,
		"lat": 47.316443
	},
	"Chouteau County, MT": {
		"name": "Chouteau County, MT",
		"long": -110.436189,
		"lat": 47.886837
	},
	"Deer Lodge County, MT": {
		"name": "Deer Lodge County, MT",
		"long": -113.139108,
		"lat": 46.099059
	},
	"Flathead County, MT": {
		"name": "Flathead County, MT",
		"long": -114.054319,
		"lat": 48.314696
	},
	"Gallatin County, MT": {
		"name": "Gallatin County, MT",
		"long": -111.173443,
		"lat": 45.535559
	},
	"Lewis and Clark County, MT": {
		"name": "Lewis and Clark County, MT",
		"long": -112.382954,
		"lat": 47.122133
	},
	"Lincoln County, MT": {
		"name": "Lincoln County, MT",
		"long": -115.404343,
		"lat": 48.542232
	},
	"Missoula County, MT": {
		"name": "Missoula County, MT",
		"long": -113.892681,
		"lat": 47.027263
	},
	"Ravalli County, MT": {
		"name": "Ravalli County, MT",
		"long": -114.119065,
		"lat": 46.079298
	},
	"Rosebud County, MT": {
		"name": "Rosebud County, MT",
		"long": -106.701953,
		"lat": 46.161734
	},
	"Silver Bow County, MT": {
		"name": "Silver Bow County, MT",
		"long": -112.660222,
		"lat": 45.895959
	},
	"Yellowstone County, MT": {
		"name": "Yellowstone County, MT",
		"long": -108.276656,
		"lat": 45.936987
	},
	"Adams County, NE": {
		"name": "Adams County, NE",
		"long": -98.500044,
		"lat": 40.520632
	},
	"Buffalo County, NE": {
		"name": "Buffalo County, NE",
		"long": -99.074983,
		"lat": 40.855226
	},
	"Cass County, NE": {
		"name": "Cass County, NE",
		"long": -96.140609,
		"lat": 40.909878
	},
	"Dodge County, NE": {
		"name": "Dodge County, NE",
		"long": -96.645853,
		"lat": 41.577008
	},
	"Douglas County, NE": {
		"name": "Douglas County, NE",
		"long": -96.154066,
		"lat": 41.297091
	},
	"Hall County, NE": {
		"name": "Hall County, NE",
		"long": -98.498004,
		"lat": 40.866023
	},
	"Lancaster County, NE": {
		"name": "Lancaster County, NE",
		"long": -96.688658,
		"lat": 40.783547
	},
	"Lincoln County, NE": {
		"name": "Lincoln County, NE",
		"long": -100.744481,
		"lat": 41.050322
	},
	"Morrill County, NE": {
		"name": "Morrill County, NE",
		"long": -102.990599,
		"lat": 41.732205
	},
	"Platte County, NE": {
		"name": "Platte County, NE",
		"long": -97.513467,
		"lat": 41.576866
	},
	"Saline County, NE": {
		"name": "Saline County, NE",
		"long": -97.131755,
		"lat": 40.516802
	},
	"Sarpy County, NE": {
		"name": "Sarpy County, NE",
		"long": -96.109125,
		"lat": 41.115064
	},
	"Saunders County, NE": {
		"name": "Saunders County, NE",
		"long": -96.640923,
		"lat": 41.223152
	},
	"Churchill County, NV": {
		"name": "Churchill County, NV",
		"long": -118.270419,
		"lat": 39.525701
	},
	"Clark County, NV": {
		"name": "Clark County, NV",
		"long": -115.013819,
		"lat": 36.214236
	},
	"Douglas County, NV": {
		"name": "Douglas County, NV",
		"long": -119.609019,
		"lat": 38.905129
	},
	"Elko County, NV": {
		"name": "Elko County, NV",
		"long": -115.351424,
		"lat": 41.141133
	},
	"Humboldt County, NV": {
		"name": "Humboldt County, NV",
		"long": -118.127592,
		"lat": 41.407914
	},
	"Lyon County, NV": {
		"name": "Lyon County, NV",
		"long": -119.197417,
		"lat": 39.022214
	},
	"Nye County, NV": {
		"name": "Nye County, NV",
		"long": -116.459047,
		"lat": 37.966379
	},
	"Washoe County, NV": {
		"name": "Washoe County, NV",
		"long": -119.710315,
		"lat": 40.703311
	},
	"Carson County, NV": {
		"name": "Carson County, NV",
		"long": -119.743442,
		"lat": 39.153447
	},
	"Belknap County, NH": {
		"name": "Belknap County, NH",
		"long": -71.425366,
		"lat": 43.519109
	},
	"Carroll County, NH": {
		"name": "Carroll County, NH",
		"long": -71.201665,
		"lat": 43.867567
	},
	"Cheshire County, NH": {
		"name": "Cheshire County, NH",
		"long": -72.248217,
		"lat": 42.925455
	},
	"Grafton County, NH": {
		"name": "Grafton County, NH",
		"long": -71.842264,
		"lat": 43.926488
	},
	"Hillsborough County, NH": {
		"name": "Hillsborough County, NH",
		"long": -71.723101,
		"lat": 42.911643
	},
	"Merrimack County, NH": {
		"name": "Merrimack County, NH",
		"long": -71.68013,
		"lat": 43.299485
	},
	"Rockingham County, NH": {
		"name": "Rockingham County, NH",
		"long": -71.099437,
		"lat": 42.98936
	},
	"Strafford County, NH": {
		"name": "Strafford County, NH",
		"long": -71.035927,
		"lat": 43.293177
	},
	"Atlantic County, NJ": {
		"name": "Atlantic County, NJ",
		"long": -74.633758,
		"lat": 39.469354
	},
	"Bergen County, NJ": {
		"name": "Bergen County, NJ",
		"long": -74.074522,
		"lat": 40.95909
	},
	"Burlington County, NJ": {
		"name": "Burlington County, NJ",
		"long": -74.663006,
		"lat": 39.875786
	},
	"Camden County, NJ": {
		"name": "Camden County, NJ",
		"long": -74.961251,
		"lat": 39.802352
	},
	"Cape May County, NJ": {
		"name": "Cape May County, NJ",
		"long": -74.847716,
		"lat": 39.086143
	},
	"Cumberland County, NJ": {
		"name": "Cumberland County, NJ",
		"long": -75.121644,
		"lat": 39.328387
	},
	"Essex County, NJ": {
		"name": "Essex County, NJ",
		"long": -74.246136,
		"lat": 40.787217
	},
	"Gloucester County, NJ": {
		"name": "Gloucester County, NJ",
		"long": -75.143708,
		"lat": 39.721019
	},
	"Hudson County, NJ": {
		"name": "Hudson County, NJ",
		"long": -74.078627,
		"lat": 40.731384
	},
	"Hunterdon County, NJ": {
		"name": "Hunterdon County, NJ",
		"long": -74.91197,
		"lat": 40.565283
	},
	"Mercer County, NJ": {
		"name": "Mercer County, NJ",
		"long": -74.703724,
		"lat": 40.282503
	},
	"Middlesex County, NJ": {
		"name": "Middlesex County, NJ",
		"long": -74.407585,
		"lat": 40.439593
	},
	"Monmouth County, NJ": {
		"name": "Monmouth County, NJ",
		"long": -74.152446,
		"lat": 40.287056
	},
	"Morris County, NJ": {
		"name": "Morris County, NJ",
		"long": -74.547427,
		"lat": 40.858581
	},
	"Ocean County, NJ": {
		"name": "Ocean County, NJ",
		"long": -74.263027,
		"lat": 39.86585
	},
	"Passaic County, NJ": {
		"name": "Passaic County, NJ",
		"long": -74.300308,
		"lat": 41.033763
	},
	"Salem County, NJ": {
		"name": "Salem County, NJ",
		"long": -75.357356,
		"lat": 39.573828
	},
	"Somerset County, NJ": {
		"name": "Somerset County, NJ",
		"long": -74.61993,
		"lat": 40.565522
	},
	"Sussex County, NJ": {
		"name": "Sussex County, NJ",
		"long": -74.691855,
		"lat": 41.137424
	},
	"Union County, NJ": {
		"name": "Union County, NJ",
		"long": -74.308696,
		"lat": 40.659871
	},
	"Warren County, NJ": {
		"name": "Warren County, NJ",
		"long": -75.009542,
		"lat": 40.853524
	},
	"Bernalillo County, NM": {
		"name": "Bernalillo County, NM",
		"long": -106.669065,
		"lat": 35.054002
	},
	"Chaves County, NM": {
		"name": "Chaves County, NM",
		"long": -104.469837,
		"lat": 33.361605
	},
	"Colfax County, NM": {
		"name": "Colfax County, NM",
		"long": -104.640126,
		"lat": 36.612963
	},
	"Curry County, NM": {
		"name": "Curry County, NM",
		"long": -103.346055,
		"lat": 34.572984
	},
	"Dona Ana County, NM": {
		"name": "Dona Ana County, NM",
		"long": -106.832182,
		"lat": 32.350912
	},
	"Eddy County, NM": {
		"name": "Eddy County, NM",
		"long": -104.306471,
		"lat": 32.457858
	},
	"Lea County, NM": {
		"name": "Lea County, NM",
		"long": -103.413271,
		"lat": 32.795687
	},
	"Los Alamos County, NM": {
		"name": "Los Alamos County, NM",
		"long": -106.307968,
		"lat": 35.870047
	},
	"Luna County, NM": {
		"name": "Luna County, NM",
		"long": -107.746639,
		"lat": 32.184482
	},
	"McKinley County, NM": {
		"name": "McKinley County, NM",
		"long": -108.255307,
		"lat": 35.573732
	},
	"Otero County, NM": {
		"name": "Otero County, NM",
		"long": -105.781079,
		"lat": 32.588776
	},
	"Rio Arriba County, NM": {
		"name": "Rio Arriba County, NM",
		"long": -106.693983,
		"lat": 36.509669
	},
	"Roosevelt County, NM": {
		"name": "Roosevelt County, NM",
		"long": -103.482725,
		"lat": 34.021457
	},
	"Sandoval County, NM": {
		"name": "Sandoval County, NM",
		"long": -106.882618,
		"lat": 35.685073
	},
	"San Juan County, NM": {
		"name": "San Juan County, NM",
		"long": -108.324578,
		"lat": 36.511625
	},
	"San Miguel County, NM": {
		"name": "San Miguel County, NM",
		"long": -104.803515,
		"lat": 35.476876
	},
	"Santa Fe County, NM": {
		"name": "Santa Fe County, NM",
		"long": -105.966441,
		"lat": 35.513722
	},
	"Sierra County, NM": {
		"name": "Sierra County, NM",
		"long": -107.188161,
		"lat": 33.119479
	},
	"Torrance County, NM": {
		"name": "Torrance County, NM",
		"long": -105.846836,
		"lat": 34.634644
	},
	"Valencia County, NM": {
		"name": "Valencia County, NM",
		"long": -106.806582,
		"lat": 34.71684
	},
	"Albany County, NY": {
		"name": "Albany County, NY",
		"long": -73.974014,
		"lat": 42.588271
	},